stop_id,stop_name,stop_lat,stop_lon,zone_id,location_type,parent_station,level_id,platform_code
"at:41:10005:0:1","Sieggraben Gemeindeamt","47.65014780","16.37928800","1050","","","Level 0","1"
"at:41:10005:0:2","Sieggraben Gemeindeamt","47.64999046","16.37942275","1050","","","Level 0","2"
"at:41:10018:0:1","Antau Kleine Zeile","47.77457048","16.47520113","1051","","","Level 0","1"
"at:41:10018:0:2","Antau Kleine Zeile","47.77443766","16.47536282","1051","","","Level 0","2"
"at:41:10019:0:1","Stöttera Ost","47.77004848","16.46449321","1051","","","Level 0","1"
"at:41:10019:0:2","Stöttera Ost","47.76984320","16.46435846","1051","","","Level 0","2"
"at:41:10020:0:1","Zemendorf Volksschule","47.76544155","16.45445903","1051","","","Level 0","1"
"at:41:10020:0:2","Zemendorf Volksschule","47.76535098","16.45458479","1051","","","Level 0","2"
"at:41:10021:0:1","Zemendorf Wr. Neustädter Str.","47.76253106","16.45128797","1051","","","Level 0","1"
"at:41:10021:0:2","Zemendorf Wr. Neustädter Str.","47.76236199","16.45177306","1051","","","Level 0","2"
"at:41:10022:0:1","Zemendorf Schmale Gasse","47.76003710","16.44806302","1051","","","Level 0","1"
"at:41:10022:0:2","Zemendorf Schmale Gasse","47.75978347","16.44783844","1051","","","Level 0","2"
"at:41:10024:0:1","Pöttelsdorf Gemeindeamt","47.75304973","16.43695086","1051","","","Level 0","1"
"at:41:10024:0:2","Pöttelsdorf Gemeindeamt","47.75292289","16.43690594","1051","","","Level 0","2"
"at:41:10025:0:1","Pöttelsdorf Mühlweg","47.75044054","16.43119266","1051","","","Level 0","1"
"at:41:10025:0:2","Pöttelsdorf Mühlweg","47.75039826","16.43134537","1051","","","Level 0","2"
"at:41:10026:0:1","Walbersdorf Kirchäckergasse","47.74346397","16.42098780","1046","","","Level 0","1"
"at:41:10026:0:2","Walbersdorf Kirchäckergasse","47.74349417","16.42117644","1046","","","Level 0","2"
"at:41:10027:0:1","Walbersdorf Kirche","47.74160943","16.41982897","1046","","","Level 0","1"
"at:41:10027:0:2","Walbersdorf Kirche","47.74059454","16.41956846","1046","","","Level 0","2"
"at:41:10031:0:1","Mattersburg Martinsplatz","47.73728393","16.39700278","1046","","","Level 0","1"
"at:41:10031:0:2","Mattersburg Martinsplatz","47.73771287","16.39620328","1046","","","Level 0","2"
"at:41:10031:0:3","Mattersburg Martinsplatz","47.73777933","16.39638294","1046","","","Level 0","3"
"at:41:10032:0:1","Mattersburg Brunnenplatz","47.73791224","16.40007502","1046","","","Level 0","1"
"at:41:10054:0:1","Mattersburg Berufsschule","47.73678853","16.40480914","1046","","","Level 0","1"
"at:41:10054:0:2","Mattersburg Berufsschule","47.73693352","16.40445880","1046","","","Level 0","2"
"at:41:10055:0:1","Mattersburg Felixstraße","47.73357435","16.40994750","1046","","","Level 0","1"
"at:41:10055:0:2","Mattersburg Felixstraße","47.73433562","16.40949835","1046","","","Level 0","2"
"at:41:10056:0:1","Marz Industriestraße","47.72536279","16.41222922","1046","","","Level 0","1"
"at:41:10056:0:2","Marz Industriestraße","47.72489749","16.41255262","1046","","","Level 0","2"
"at:41:10057:0:1","Marz Ortsmitte","47.71896303","16.41688250","1046","","","Level 0","1"
"at:41:10057:0:2","Marz Ortsmitte","47.71865481","16.41705318","1046","","","Level 0","2"
"at:41:10057:0:3","Marz Ortsmitte","47.71910204","16.41734962","1046","","","Level 0","3"
"at:41:10057:0:4","Marz Ortsmitte","47.71925312","16.41709809","1046","","","Level 0","4"
"at:41:10058:0:1","Marz Forchtensteinweg","47.71484720","16.41001039","1046","","","Level 0","1"
"at:41:10058:0:2","Marz Forchtensteinweg","47.71478676","16.41009123","1046","","","Level 0","2"
"at:41:10059:0:1","Marz B50/Lehrnertal","47.69717139","16.39561937","1046","","","Level 0","1"
"at:41:10059:0:2","Marz B50/Lehrnertal","47.69668165","16.39584395","1046","","","Level 0","2"
"at:41:10063:0:1","Kalkgruben Ortsmitte","47.62140713","16.39576310","1090","","","Level 0","1"
"at:41:10063:0:2","Kalkgruben Ortsmitte","47.62068054","16.39673329","1090","","","Level 0","2"
"at:41:10064:0:1","Kalkgruben B50 Süd","47.61724120","16.39841313","1090","","","Level 0","1"
"at:41:10064:0:2","Kalkgruben B50 Süd","47.61741075","16.39842212","1090","","","Level 0","2"
"at:41:10065:0:1","Tschurndorf Ortsmitte","47.60415998","16.40736934","1090","","","Level 0","1"
"at:41:10065:0:2","Tschurndorf Ortsmitte","47.60459001","16.40743222","1090","","","Level 0","2"
"at:41:10066:0:1","Tschurndorf Hauptstraße Süd","47.59640054","16.41223821","1090","","","Level 0","1"
"at:41:10066:0:2","Tschurndorf Hauptstraße Süd","47.59586745","16.41276821","1090","","","Level 0","2"
"at:41:10067:0:1","Markt St. Martin Kirchenplatz","47.56372074","16.42822822","1089","","","Level 0","1"
"at:41:10067:0:2","Markt St. Martin Kirchenplatz","47.56399351","16.42811144","1089","","","Level 0","2"
"at:41:10068:0:1","Markt St. Martin Mühlweg","47.56096872","16.43073452","1089","","","Level 0","1"
"at:41:10068:0:2","Markt St. Martin Mühlweg","47.56087173","16.43112978","1089","","","Level 0","2"
"at:41:10069:0:1","Neutal Bahngasse","47.54650915","16.44443383","1089","","","Level 0","1"
"at:41:10069:0:2","Neutal Bahngasse","47.54673350","16.44444281","1089","","","Level 0","2"
"at:41:10069:0:3","Neutal Bahngasse","47.54592098","16.44365229","1089","","","Level 0","3"
"at:41:10070:0:1","Neutal Gemeindeamt","47.54301036","16.44745217","1089","","","Level 0","1"
"at:41:10070:0:2","Neutal Gemeindeamt","47.54335600","16.44738030","1089","","","Level 0","2"
"at:41:10071:0:1","Neutal Süd/Gemeindegrenze","47.53512056","16.46113351","1089","","","Level 0","1"
"at:41:10071:0:2","Neutal Süd/Gemeindegrenze","47.53542380","16.46022621","1089","","","Level 0","2"
"at:41:10072:0:1","Markt St. Martin Volksschule","47.56327825","16.42593752","1089","","","Level 0","1"
"at:41:10074:0:1","Stoob Evangelische Kirche","47.52507617","16.48033949","1089","","","Level 0","1"
"at:41:10074:0:2","Stoob Evangelische Kirche","47.52523389","16.48046525","1089","","","Level 0","2"
"at:41:10075:0:1","Stoob-Süd B50","47.50988463","16.49958140","1083","","","Level 0","1"
"at:41:10075:0:2","Stoob-Süd B50","47.50979362","16.50030005","1083","","","Level 0","2"
"at:41:10076:0:1","Liebing Hauptstraße","47.41420565","16.49383218","1081","","","Level 0","1"
"at:41:10076:0:2","Liebing Hauptstraße","47.41408407","16.49388608","1081","","","Level 0","2"
"at:41:10078:0:1","Stoob-Süd Fachmarktzentrum","47.51371933","16.49059825","1083","","","Level 0","1"
"at:41:10079:0:1","Neutal Theodor-Kery-Straße","47.54646064","16.44449671","1089","","","Level 0","1"
"at:41:10084:0:1","Rechnitz Pointgasse","47.31202472","16.43519915","1109","","","Level 0","1"
"at:41:10084:0:2","Rechnitz Pointgasse","47.31218917","16.43527101","1109","","","Level 0","2"
"at:41:10087:0:1","Schachendorf Abzw. Schandorf","47.26279564","16.42483259","1112","","","Level 0","1"
"at:41:10087:0:2","Schachendorf Abzw. Schandorf","47.26266762","16.42475174","1112","","","Level 0","2"
"at:41:10088:0:1","Dürnbach im Bgld Süd","47.26094843","16.39122661","1112","","","Level 0","1"
"at:41:10088:0:2","Dürnbach im Bgld Süd","47.26093014","16.39192730","1112","","","Level 0","2"
"at:41:10090:0:1","Neuhof bei Dürnbach West","47.25665022","16.35029937","1112","","","Level 0","1"
"at:41:10090:0:2","Neuhof bei Dürnbach West","47.25655267","16.35041615","1112","","","Level 0","2"
"at:41:10091:0:1","Neuhof bei Dürnbach Ost","47.25861342","16.35418009","1112","","","Level 0","1"
"at:41:10091:0:2","Neuhof bei Dürnbach Ost","47.25865610","16.35483586","1112","","","Level 0","2"
"at:41:10092:0:1","Rechnitz Herrengasse","47.30438653","16.43910682","1109","","","Level 0","1"
"at:41:10092:0:2","Rechnitz Herrengasse","47.30433170","16.43915173","1109","","","Level 0","2"
"at:41:10093:0:1","Großpetersdorf Wildentengraben","47.24071025","16.31615440","1095","","","Level 0","1"
"at:41:10093:0:2","Großpetersdorf Wildentengraben","47.24062487","16.31605559","1095","","","Level 0","2"
"at:41:10094:0:1","Rechnitz Weirergasse Süd","47.30436825","16.43757968","1109","","","Level 0","1"
"at:41:10094:0:2","Rechnitz Weirergasse Süd","47.30473374","16.43715747","1109","","","Level 0","2"
"at:41:10095:0:1","Rotenturm an der Pinka Bahnhofstraße","47.25877194","16.26273159","1125","","","Level 0","1"
"at:41:10095:0:2","Rotenturm an der Pinka Bahnhofstraße","47.25794887","16.26350415","1125","","","Level 0","2"
"at:41:10096:0:1","Rotenturm an der Pinka Hauptstraße","47.25408942","16.24198949","1125","","","Level 0","1"
"at:41:10096:0:2","Rotenturm an der Pinka Hauptstraße","47.25379065","16.24207034","1125","","","Level 0","2"
"at:41:10097:0:1","Rotenturm an der Pinka Schloßplatz","47.25259556","16.24484614","1125","","","Level 0","1"
"at:41:10097:0:2","Rotenturm an der Pinka Schloßplatz","47.25251629","16.24392087","1125","","","Level 0","2"
"at:41:10098:0:1","Unterwart Marienplatz","47.25904019","16.23528806","1125","","","Level 0","1"
"at:41:10098:0:2","Unterwart Marienplatz","47.25903410","16.23515332","1125","","","Level 0","2"
"at:41:10099:0:1","Unterwart Kirchenallee","47.25918042","16.23377889","1125","","","Level 0","1"
"at:41:10099:0:2","Unterwart Kirchenallee","47.25924138","16.23370703","1125","","","Level 0","2"
"at:41:10100:0:1","Rechnitz Dr.-Karl-Renner-Str. 7","47.30243112","16.43133639","1109","","","Level 0","1"
"at:41:10100:0:2","Rechnitz Dr.-Karl-Renner-Str. 7","47.30250422","16.43121961","1109","","","Level 0","2"
"at:41:10101:0:2","Oberwart Platanengasse","47.27757101","16.22704153","1107","","","Level 0","2"
"at:41:10102:0:1","Rechnitz Dr.-Karl-Renner-Str. 41","47.30580583","16.43340252","1109","","","Level 0","1"
"at:41:10102:0:2","Rechnitz Dr.-Karl-Renner-Str. 41","47.30562918","16.43337557","1109","","","Level 0","2"
"at:41:10103:0:1","Oberwart Internat/BAfEp","47.28121545","16.20371228","1107","","","Level 0","1"
"at:41:10103:0:2","Oberwart Internat/BAfEp","47.28133124","16.20364042","1107","","","Level 0","2"
"at:41:10104:0:1","Oberwart Dornburggasse","47.28575542","16.19408234","1107","","","Level 0","1"
"at:41:10104:0:2","Oberwart Dornburggasse","47.28579198","16.19417217","1107","","","Level 0","2"
"at:41:10105:0:2","Rechnitz Weirergasse 79/81","47.30695099","16.43618729","1109","","","Level 0","2"
"at:41:10106:0:1","Rechnitz Nußgrabengasse","47.30742001","16.43436371","1109","","","Level 0","1"
"at:41:10106:0:2","Rechnitz Nußgrabengasse","47.30754183","16.43496558","1109","","","Level 0","2"
"at:41:10107:0:1","Rechnitz Föhrenweg","47.31597739","16.43153402","1109","","","Level 0","1"
"at:41:10108:0:1","Kemeten Tulpengasse","47.24377178","16.15223881","1097","","","Level 0","1"
"at:41:10108:0:2","Kemeten Tulpengasse","47.24385106","16.15260712","1097","","","Level 0","2"
"at:41:10109:0:1","Rechnitz Evangelischer Friedhof","47.30770020","16.43879241","1109","","","Level 0","1"
"at:41:10109:0:2","Rechnitz Evangelischer Friedhof","47.30775502","16.43864868","1109","","","Level 0","2"
"at:41:10110:0:2","Rechnitz Hochstraße 93","47.31176892","16.43952903","1109","","","Level 0","2"
"at:41:10112:0:2","Rechnitz Faludigasse","47.31334028","16.43981649","1109","","","Level 0","2"
"at:41:10113:0:1","Rechnitz Obere Taborgasse","47.30864432","16.44330195","1109","","","Level 0","1"
"at:41:10114:0:1","Bocksdorf Güssinger Straße","47.14620997","16.18382358","1127","","","Level 0","1"
"at:41:10114:0:2","Bocksdorf Güssinger Straße","47.14670485","16.18332951","1127","","","Level 0","2"
"at:41:10115:0:1","Rechnitz Günserstr./Pilleng.","47.30650024","16.44743420","1109","","","Level 0","1"
"at:41:10115:0:2","Rechnitz Günserstr./Pilleng.","47.30664034","16.44734437","1109","","","Level 0","2"
"at:41:10116:0:1","Rechnitz Pillengasse 11","47.30496522","16.44900625","1109","","","Level 0","1"
"at:41:10116:0:2","Rechnitz Pillengasse 11","47.30570837","16.44855709","1109","","","Level 0","2"
"at:41:10117:0:1","Rechnitz Steinamanger Straße 23","47.30247985","16.44860201","1109","","","Level 0","1"
"at:41:10117:0:2","Rechnitz Steinamanger Straße 23","47.30231537","16.44952727","1109","","","Level 0","2"
"at:41:10118:0:1","Deutsch Tschantschendorf Nord","47.10724629","16.28708492","1028","","","Level 0","1"
"at:41:10118:0:2","Deutsch Tschantschendorf Nord","47.10689167","16.28716577","1028","","","Level 0","2"
"at:41:10119:0:1","Deutsch Tschantschendorf Ortsmitte","47.10507571","16.28992360","1028","","","Level 0","1"
"at:41:10119:0:2","Deutsch Tschantschendorf Ortsmitte","47.10482502","16.29022903","1028","","","Level 0","2"
"at:41:10120:0:1","Rechnitz Steinamangerstr. 34/36","47.30366163","16.44624842","1109","","","Level 0","1"
"at:41:10120:0:2","Rechnitz Steinamangerstr. 34/36","47.30353371","16.44620351","1109","","","Level 0","2"
"at:41:10121:0:1","Güssing Wiener Straße Nord","47.07434792","16.31946919","1015","","","Level 0","1"
"at:41:10121:0:2","Güssing Wiener Straße Nord","47.07307537","16.31999919","1015","","","Level 0","2"
"at:41:10123:0:1","Güssing Hauptplatz","47.05894066","16.32193955","1015","","","Level 0","1"
"at:41:10124:0:1","Deutsch Tschantschendorf Bergen","47.13232078","16.30759346","1028","","","Level 0","1"
"at:41:10124:0:2","Deutsch Tschantschendorf Bergen","47.13249801","16.30696464","1028","","","Level 0","2"
"at:41:10125:0:1","Rechnitz Katharinengasse","47.30274179","16.44339178","1109","","","Level 0","1"
"at:41:10125:0:2","Rechnitz Katharinengasse","47.30278444","16.44354449","1109","","","Level 0","2"
"at:41:10126:0:1","Rechnitz Hyrtlgasse/Kreuzgasse","47.30021977","16.44541299","1109","","","Level 0","1"
"at:41:10126:0:2","Rechnitz Hyrtlgasse/Kreuzgasse","47.30027460","16.44563757","1109","","","Level 0","2"
"at:41:10127:0:1","Rechnitz Lisztgasse","47.29819110","16.44529621","1109","","","Level 0","1"
"at:41:10127:0:2","Rechnitz Lisztgasse","47.29804489","16.44547587","1109","","","Level 0","2"
"at:41:10128:0:1","Rechnitz Mariengasse","47.29814845","16.44172990","1109","","","Level 0","1"
"at:41:10128:0:2","Rechnitz Mariengasse","47.29802052","16.44172990","1109","","","Level 0","2"
"at:41:10129:0:1","Rechnitz Alzey-Straße","47.29694827","16.43793901","1109","","","Level 0","1"
"at:41:10129:0:2","Rechnitz Alzey-Straße","47.29682643","16.43793901","1109","","","Level 0","2"
"at:41:10130:0:1","Rechnitz Martingasse","47.29753923","16.43774138","1109","","","Level 0","1"
"at:41:10130:0:2","Rechnitz Martingasse","47.29753923","16.43757968","1109","","","Level 0","2"
"at:41:10131:0:1","Rechnitz Neuegasse","47.30050000","16.43809172","1109","","","Level 0","1"
"at:41:10131:0:2","Rechnitz Neuegasse","47.30051828","16.43792104","1109","","","Level 0","2"
"at:41:10132:0:1","Rechnitz Schulgasse","47.30192550","16.43920563","1109","","","Level 0","1"
"at:41:10134:0:2","Rechnitz Alois-Hofer-Gasse","47.29828858","16.43757070","1109","","","Level 0","2"
"at:41:10135:0:1","Rotenturm an der Pinka Meierhof","47.25260165","16.25083790","1125","","","Level 0","1"
"at:41:10135:0:2","Rotenturm an der Pinka Meierhof","47.25241873","16.25106248","1125","","","Level 0","2"
"at:41:10141:0:1","Güssing Batthyánystraße","47.05354890","16.32361042","1015","","","Level 0","1"
"at:41:10141:0:2","Güssing Batthyánystraße","47.05359786","16.32428416","1015","","","Level 0","2"
"at:41:10141:0:3","Güssing Batthyánystraße","47.05349382","16.32341279","1015","","","Level 0","3"
"at:41:10142:0:1","Güssing Schulzentrum","47.06404427","16.32422128","1015","","","Level 0","1"
"at:41:10142:0:2","Güssing Schulzentrum","47.06307132","16.32352957","1015","","","Level 0","2"
"at:41:10143:0:1","Güssing Krankenhaus","47.05092320","16.32237075","1015","","","Level 0","1"
"at:41:10143:0:2","Güssing Krankenhaus","47.05037234","16.32167006","1015","","","Level 0","2"
"at:41:10160:0:1","Mogersdorf Ost","46.94801548","16.23442568","1038","","","Level 0","1"
"at:41:10160:0:2","Mogersdorf Ost","46.94784377","16.23427297","1038","","","Level 0","2"
"at:41:10162:0:1","Jennersdorf Lindenallee Süd","46.93945389","16.14250108","1035","","","Level 0","1"
"at:41:10162:0:2","Jennersdorf Lindenallee Süd","46.93934349","16.14257294","1035","","","Level 0","2"
"at:41:10163:0:1","Oberwart Bildungscampus","47.28144703","16.20574247","","","","Level 0","1"
"at:41:10169:0:1","Steingraben Güssinger Straße","47.06431963","16.28316827","1015","","","Level 0","1"
"at:41:10169:0:2","Steingraben Güssinger Straße","47.06431963","16.28332098","1015","","","Level 0","2"
"at:41:10197:0:1","Krottendorf bei Güssing Mitte","47.05792477","16.30820431","1015","","","Level 0","1"
"at:41:10197:0:2","Krottendorf bei Güssing Mitte","47.05789417","16.30813245","1015","","","Level 0","2"
"at:41:10198:0:1","Krottendorf bei Güssing Glockenturm","47.06035430","16.30789889","1015","","","Level 0","1"
"at:41:10198:0:2","Krottendorf bei Güssing Glockenturm","47.06038489","16.30782702","1015","","","Level 0","2"
"at:41:10224:0:1","Wallendorf Kapelle","46.97236192","16.23387771","1038","","","Level 0","1"
"at:41:10224:0:2","Wallendorf Kapelle","46.97249064","16.23391364","1038","","","Level 0","2"
"at:41:10225:0:1","Deutsch Minihof Kapelle","46.97005711","16.24386697","1038","","","Level 0","1"
"at:41:10225:0:2","Deutsch Minihof Kapelle","46.97035748","16.24350765","1038","","","Level 0","2"
"at:41:10227:0:1","Heiligenkreuz im Lafnitztal Ortsmitte","46.98849889","16.25785374","1033","","","Level 0","1"
"at:41:10227:0:2","Heiligenkreuz im Lafnitztal Ortsmitte","46.98866434","16.25755730","1033","","","Level 0","2"
"at:41:10247:0:1","Heiligenbrunn Ortsmitte","47.02688810","16.41657707","1017","","","Level 0","1"
"at:41:10247:0:2","Heiligenbrunn Ortsmitte","47.02705343","16.41657707","1017","","","Level 0","2"
"at:41:10259:0:1","Gerersdorf bei Güssing Ortsmitte","47.06837033","16.25333522","1013","","","Level 0","1"
"at:41:10259:0:2","Gerersdorf bei Güssing Ortsmitte","47.06848659","16.25351488","1013","","","Level 0","2"
"at:41:10260:0:1","Rehgraben bei Güssing Dorfstraße Mitte","47.08064293","16.23677927","1013","","","Level 0","1"
"at:41:10260:0:2","Rehgraben bei Güssing Dorfstraße Mitte","47.08081422","16.23673435","1013","","","Level 0","2"
"at:41:10262:0:1","Kukmirn Gemeindeamt","47.07362600","16.20567959","1019","","","Level 0","1"
"at:41:10262:0:2","Kukmirn Gemeindeamt","47.07413991","16.20616468","1019","","","Level 0","2"
"at:41:10263:0:1","Kukmirn Volksschule","47.06906174","16.20556281","1019","","","Level 0","1"
"at:41:10263:0:2","Kukmirn Volksschule","47.06908009","16.20553586","1019","","","Level 0","2"
"at:41:10271:0:1","Rudersdorf Bergstraße Mitte","47.06732403","16.13698542","1041","","","Level 0","1"
"at:41:10271:0:2","Rudersdorf Bergstraße Mitte","47.06740970","16.13676084","1041","","","Level 0","2"
"at:41:10295:0:1","Oberpullendorf Kammergasse","47.50127980","16.50648046","1083","","","Level 0","1"
"at:41:10297:0:1","Großwarasdorf Mittelschule","47.53668527","16.55656154","1073","","","Level 0","1"
"at:41:10297:0:2","Großwarasdorf Mittelschule","47.53668527","16.55670527","1073","","","Level 0","2"
"at:41:10298:0:1","Großwarasdorf Martin-Mersich-Straße","47.53760103","16.55710053","1073","","","Level 0","1"
"at:41:10298:0:2","Großwarasdorf Martin-Mersich-Straße","47.53767381","16.55691188","1073","","","Level 0","2"
"at:41:10301:0:1","Kroatisch Geresdorf Kirche","47.49383895","16.60878959","1124","","","Level 0","1"
"at:41:10301:0:2","Kroatisch Geresdorf Kirche","47.49392392","16.60858298","1124","","","Level 0","2"
"at:41:10302:0:1","Kroatisch Geresdorf Ortsmitte","47.49094365","16.61088267","1124","","","Level 0","1"
"at:41:10302:0:2","Kroatisch Geresdorf Ortsmitte","47.49122894","16.61044249","1124","","","Level 0","2"
"at:41:10304:0:1","Lutzmannsburg Minihofer Weg","47.46452047","16.64438983","1124","","","Level 0","1"
"at:41:10304:0:2","Lutzmannsburg Minihofer Weg","47.46466622","16.64346456","1124","","","Level 0","2"
"at:41:10309:0:1","Kleinwarasdorf Ignaz-Horvath-Gasse","47.53915960","16.59197313","1073","","","Level 0","1"
"at:41:10309:0:2","Kleinwarasdorf Ignaz-Horvath-Gasse","47.53930515","16.59153295","1073","","","Level 0","2"
"at:41:10310:0:1","Kroatisch Minihof Ortsmitte","47.52736302","16.64580018","1082","","","Level 0","1"
"at:41:10310:0:2","Kroatisch Minihof Ortsmitte","47.52739941","16.64559357","1082","","","Level 0","2"
"at:41:10311:0:1","Nikitsch Schlosstor","47.53404100","16.65134279","1082","","","Level 0","1"
"at:41:10311:0:2","Nikitsch Schlosstor","47.53416836","16.65135177","1082","","","Level 0","2"
"at:41:10315:0:1","Deutschkreutz Friedhofgasse","47.59604313","16.62869626","1070","","","Level 0","1"
"at:41:10315:0:2","Deutschkreutz Friedhofgasse","47.59625515","16.62833693","1070","","","Level 0","2"
"at:41:10316:0:1","Deutschkreutz Kirche","47.60113751","16.62470774","1070","","","Level 0","1"
"at:41:10317:0:2","Deutschkreutz Webergasse","47.59771506","16.62900169","1070","","","Level 0","2"
"at:41:10318:0:2","Deutschkreutz Mühlallee","47.59984730","16.63189426","1070","","","Level 0","2"
"at:41:10319:0:2","Deutschkreutz Zinkendorferstraße","47.60388742","16.62610013","1070","","","Level 0","2"
"at:41:10321:0:1","Girm Ortsmitte","47.59979884","16.60809789","1070","","","Level 0","1"
"at:41:10321:0:2","Girm Ortsmitte","47.59984124","16.60773856","1070","","","Level 0","2"
"at:41:10326:0:1","Großwarasdorf Johannesgasse","47.54265258","16.55148606","1073","","","Level 0","1"
"at:41:10326:0:2","Großwarasdorf Johannesgasse","47.54265258","16.55136928","1073","","","Level 0","2"
"at:41:10327:0:1","Raiding Sechshauser Straße","47.56373287","16.53164227","1086","","","Level 0","1"
"at:41:10327:0:2","Raiding Sechshauser Straße","47.56364800","16.53149854","1086","","","Level 0","2"
"at:41:10329:0:1","Raiding Augasse","47.56893949","16.52315320","1086","","","Level 0","1"
"at:41:10329:0:2","Raiding Augasse","47.56887888","16.52315320","1086","","","Level 0","2"
"at:41:10331:0:1","Unterfrauenhaid Feldgasse Ost","47.57079411","16.49845851","1086","","","Level 0","1"
"at:41:10334:0:1","Lackenbach Schloßgasse","47.58794320","16.46664916","1077","","","Level 0","1"
"at:41:10334:0:2","Lackenbach Schloßgasse","47.58792502","16.46695459","1077","","","Level 0","2"
"at:41:10335:0:1","Lackenbach Haydngasse","47.58867630","16.46332540","1077","","","Level 0","1"
"at:41:10335:0:2","Lackenbach Haydngasse","47.58847637","16.46319963","1077","","","Level 0","2"
"at:41:10336:0:1","Lackenbach Wiener Straße","47.58660419","16.46124131","1077","","","Level 0","1"
"at:41:10336:0:2","Lackenbach Wiener Straße","47.58660419","16.46137605","1077","","","Level 0","2"
"at:41:10337:0:1","Lackenbach Feldgasse","47.59186307","16.46703544","1077","","","Level 0","1"
"at:41:10337:0:2","Lackenbach Feldgasse","47.59180248","16.46691866","1077","","","Level 0","2"
"at:41:10339:0:1","Ritzing Hauptplatz","47.60722467","16.49652713","1077","","","Level 0","1"
"at:41:10339:0:2","Ritzing Hauptplatz","47.60641914","16.49562881","1077","","","Level 0","2"
"at:41:10344:0:1","Mitterpullendorf Engelberggasse","47.49465835","16.51041508","1083","","","Level 0","1"
"at:41:10344:0:2","Mitterpullendorf Engelberggasse","47.49621213","16.51041508","1083","","","Level 0","2"
"at:41:10345:0:1","Oberpullendorf Kirche","47.49674623","16.50744166","1083","","","Level 0","1"
"at:41:10346:0:1","Horitschon Bahnstraße","47.58916099","16.54789280","1074","","","Level 0","1"
"at:41:10348:0:1","Horitschon Florianigasse","47.58788261","16.54870128","1074","","","Level 0","1"
"at:41:10351:0:1","Neckenmarkt Elisabethgasse","47.59392891","16.54857552","1074","","","Level 0","1"
"at:41:10351:0:2","Neckenmarkt Elisabethgasse","47.59428633","16.54835094","1074","","","Level 0","2"
"at:41:10352:0:1","Neckenmarkt Feldgasse","47.60240951","16.54792873","1074","","","Level 0","1"
"at:41:10353:0:1","Neckenmarkt Hofstatt","47.60260334","16.54135306","1074","","","Level 0","1"
"at:41:10354:0:1","Neckenmarkt Rathausgasse Nord","47.59758179","16.54865637","1074","","","Level 0","1"
"at:41:10355:0:1","Neckenmarkt Lange Zeile","47.60056207","16.54274545","1074","","","Level 0","1"
"at:41:10357:0:1","Bad Tatzmannsdorf Falcogasse","47.32833290","16.22820035","1091","","","Level 0","1"
"at:41:10357:0:2","Bad Tatzmannsdorf Falcogasse","47.32795540","16.22845188","1091","","","Level 0","2"
"at:41:10358:0:1","Unterpetersdorf Kirche","47.59057263","16.58161555","1074","","","Level 0","1"
"at:41:10358:0:2","Unterpetersdorf Kirche","47.59074227","16.58169640","1074","","","Level 0","2"
"at:41:10360:0:1","Jormannsdorf Batthyányallee","47.34075857","16.22616118","1091","","","Level 0","1"
"at:41:10360:0:2","Jormannsdorf Batthyányallee","47.34055769","16.22640372","1091","","","Level 0","2"
"at:41:10361:0:1","Mitterpullendorf Süd","47.48764755","16.52203928","1083","","","Level 0","1"
"at:41:10361:0:2","Mitterpullendorf Süd","47.48755042","16.52235369","1083","","","Level 0","2"
"at:41:10363:0:1","Bad Tatzmannsdorf Evangelische Kirche","47.33562672","16.22710441","1091","","","Level 0","1"
"at:41:10363:0:2","Bad Tatzmannsdorf Evangelische Kirche","47.33588241","16.22716729","1091","","","Level 0","2"
"at:41:10365:0:1","Bad Tatzmannsdorf Volksschule","47.33411690","16.22749967","1091","","","Level 0","1"
"at:41:10365:0:2","Bad Tatzmannsdorf Volksschule","47.33410472","16.22763442","1091","","","Level 0","2"
"at:41:10367:0:1","Mariasdorf Ortsmitte","47.36546120","16.23120971","1101","","","Level 0","1"
"at:41:10367:0:2","Mariasdorf Ortsmitte","47.36484666","16.23174870","1101","","","Level 0","2"
"at:41:10368:0:1","Mariasdorf Kirche","47.36829040","16.23420110","1101","","","Level 0","1"
"at:41:10368:0:2","Mariasdorf Kirche","47.36822956","16.23428195","1101","","","Level 0","2"
"at:41:10369:0:1","Grodnau B50","47.37512853","16.24682243","1101","","","Level 0","1"
"at:41:10369:0:2","Grodnau B50","47.37546920","16.24752312","1101","","","Level 0","2"
"at:41:10369:0:3","Grodnau B50","47.37573078","16.24686735","1101","","","Level 0","3"
"at:41:10369:0:4","Grodnau B50","47.37591936","16.24688531","1101","","","Level 0","4"
"at:41:10371:0:1","Rettenbach im Bgld Angergasse","47.41122085","16.24013897","1092","","","Level 0","1"
"at:41:10372:0:1","Stuben im Bgld Am Graben","47.42831275","16.24741532","1092","","","Level 0","1"
"at:41:10372:0:2","Stuben im Bgld Am Graben","47.42795419","16.24755007","1092","","","Level 0","2"
"at:41:10374:0:1","Bernstein im Bgld Hauptplatz","47.40581618","16.25558100","1092","","","Level 0","1"
"at:41:10375:0:1","Bad Tatzmannsdorf Glockenstraße","47.33271662","16.23765961","1091","","","Level 0","1"
"at:41:10375:0:2","Bad Tatzmannsdorf Glockenstraße","47.33185208","16.23763267","1091","","","Level 0","2"
"at:41:10377:0:1","Bernstein im Bgld Graben","47.40801702","16.26292922","1092","","","Level 0","1"
"at:41:10377:0:2","Bernstein im Bgld Graben","47.40863106","16.26371974","1092","","","Level 0","2"
"at:41:10380:0:1","Redlschlag Abzw. Redlshöhe","47.43796247","16.27622429","1092","","","Level 0","1"
"at:41:10380:0:2","Redlschlag Abzw. Redlshöhe","47.43769513","16.27637700","1092","","","Level 0","2"
"at:41:10382:0:1","Mattersburg Gymnasium","47.73654083","16.40062299","1046","","","Level 0","1"
"at:41:10388:0:1","Steinbach im Bgld Ortsmitte","47.47382960","16.31444761","3528","","","Level 0","1"
"at:41:10388:0:2","Steinbach im Bgld Ortsmitte","47.47361708","16.31368404","3528","","","Level 0","2"
"at:41:10389:0:1","Lebenbrunn Kirche","47.46259528","16.30170949","1084","","","Level 0","1"
"at:41:10389:0:2","Lebenbrunn Kirche","47.46248596","16.30165560","1084","","","Level 0","2"
"at:41:10391:0:1","Kogl im Bgld Kirche","47.44581221","16.29900557","1084","","","Level 0","1"
"at:41:10391:0:2","Kogl im Bgld Kirche","47.44503458","16.29853844","1084","","","Level 0","2"
"at:41:10392:0:1","Pilgersdorf Ägydiplatz","47.44098221","16.34957173","1084","","","Level 0","1"
"at:41:10392:0:2","Pilgersdorf Ägydiplatz","47.44081209","16.34994004","1084","","","Level 0","2"
"at:41:10394:0:1","Bubendorf B55","47.42875638","16.35636300","1087","","","Level 0","1"
"at:41:10394:0:2","Bubendorf B55","47.42947956","16.35604859","1087","","","Level 0","2"
"at:41:10395:0:1","Bubendorf Ortsmitte","47.42743762","16.34704747","1087","","","Level 0","1"
"at:41:10395:0:2","Bubendorf Ortsmitte","47.42737077","16.34734391","1087","","","Level 0","2"
"at:41:10397:0:1","Weißenbachl B50","47.39222605","16.34545745","1087","","","Level 0","1"
"at:41:10397:0:2","Weißenbachl B50","47.39208010","16.34554728","1087","","","Level 0","2"
"at:41:10398:0:1","Langeck im Bgld Kirchengasse","47.40279443","16.37338607","1079","","","Level 0","1"
"at:41:10398:0:2","Langeck im Bgld Kirchengasse","47.40299507","16.37430235","1079","","","Level 0","2"
"at:41:10400:0:1","Deutsch Gerisdorf B55","47.41776773","16.36562463","1087","","","Level 0","1"
"at:41:10400:0:2","Deutsch Gerisdorf B55","47.41785283","16.36571446","1087","","","Level 0","2"
"at:41:10400:0:3","Deutsch Gerisdorf B55","47.41734831","16.36552581","1087","","","Level 0","3"
"at:41:10401:0:1","Deutsch Gerisdorf Ortsmitte","47.41354305","16.36275002","1087","","","Level 0","1"
"at:41:10402:0:1","Hochstraß im Bgld Ortsmitte","47.42861053","16.40433303","1079","","","Level 0","1"
"at:41:10402:0:2","Hochstraß im Bgld Ortsmitte","47.42873207","16.40431507","1079","","","Level 0","2"
"at:41:10403:0:1","Lockenhaus Abzw. Hochstraß","47.41497158","16.40780951","1079","","","Level 0","1"
"at:41:10403:0:2","Lockenhaus Abzw. Hochstraß","47.41518433","16.40736036","1079","","","Level 0","2"
"at:41:10404:0:1","Lockenhaus Neugasse","47.41278926","16.41229211","1079","","","Level 0","1"
"at:41:10404:0:2","Lockenhaus Neugasse","47.41278926","16.41258855","1079","","","Level 0","2"
"at:41:10406:0:1","Lockenhaus Hauptplatz","47.40681934","16.41808624","1079","","","Level 0","1"
"at:41:10407:0:1","Piringsdorf Volksschule","47.44684498","16.41555299","1085","","","Level 0","1"
"at:41:10407:0:2","Piringsdorf Volksschule","47.44672348","16.41564282","1085","","","Level 0","2"
"at:41:10408:0:1","Piringsdorf Rabnitzstraße/Reitwiesen","47.44968196","16.41830184","1085","","","Level 0","1"
"at:41:10408:0:2","Piringsdorf Rabnitzstraße/Reitwiesen","47.44966981","16.41802336","1085","","","Level 0","2"
"at:41:10410:0:1","Piringsdorf B50/Reitwiesen","47.44973663","16.42211069","1085","","","Level 0","1"
"at:41:10410:0:2","Piringsdorf B50/Reitwiesen","47.44990673","16.42267663","1085","","","Level 0","2"
"at:41:10414:0:1","Weingraben Hauptplatz","47.51420472","16.36392681","1075","","","Level 0","1"
"at:41:10414:0:2","Weingraben Hauptplatz","47.51408944","16.36372918","1075","","","Level 0","2"
"at:41:10414:0:3","Weingraben Hauptplatz","47.51442314","16.36375613","1075","","","Level 0","3"
"at:41:10415:0:1","Weingraben Untere Hauptstraße","47.51240270","16.36905619","1075","","","Level 0","1"
"at:41:10415:0:2","Weingraben Untere Hauptstraße","47.51226922","16.36896636","1075","","","Level 0","2"
"at:41:10420:0:1","Oberrabnitz Kirche","47.49292243","16.35425196","1071","","","Level 0","1"
"at:41:10420:0:2","Oberrabnitz Kirche","47.49287387","16.35439569","1071","","","Level 0","2"
"at:41:10421:0:1","Schwendgraben Friedhof","47.47130968","16.35538383","1071","","","Level 0","1"
"at:41:10421:0:2","Schwendgraben Friedhof","47.47147970","16.35551858","1071","","","Level 0","2"
"at:41:10425:0:1","Piringsdorf Wehrgasse","47.44810250","16.41349585","1085","","","Level 0","1"
"at:41:10425:0:2","Piringsdorf Wehrgasse","47.44827868","16.41341500","1085","","","Level 0","2"
"at:41:10426:0:1","Steinberg/Rabnitz Untere Hauptstraße","47.47337420","16.48885552","1088","","","Level 0","1"
"at:41:10426:0:2","Steinberg/Rabnitz Untere Hauptstraße","47.47352600","16.48877467","1088","","","Level 0","2"
"at:41:10428:0:1","Steinberg/Rabnitz Sonnriegel Süd","47.47833480","16.49390405","1088","","","Level 0","1"
"at:41:10428:0:2","Steinberg/Rabnitz Sonnriegel Süd","47.47831658","16.49393100","1088","","","Level 0","2"
"at:41:10430:0:1","Mitterpullendorf Kleine Gasse","47.49196947","16.51522107","1083","","","Level 0","1"
"at:41:10430:0:2","Mitterpullendorf Kleine Gasse","47.49184200","16.51571514","1083","","","Level 0","2"
"at:41:10432:0:1","Unterpullendorf Ortsmitte","47.47531721","16.54152374","1072","","","Level 0","1"
"at:41:10432:0:2","Unterpullendorf Ortsmitte","47.47531721","16.54182917","1072","","","Level 0","2"
"at:41:10433:0:1","Unterpullendorf Günser Straße","47.47317382","16.54638363","1072","","","Level 0","1"
"at:41:10433:0:2","Unterpullendorf Günser Straße","47.47338027","16.54602430","1072","","","Level 0","2"
"at:41:10434:0:1","Unterloisdorf Kirche","47.43720903","16.53199262","1081","","","Level 0","1"
"at:41:10434:0:2","Unterloisdorf Kirche","47.43689915","16.53170516","1081","","","Level 0","2"
"at:41:10436:0:1","Mannersdorf/Rabnitz Volksschule","47.42865915","16.52751901","1081","","","Level 0","1"
"at:41:10436:0:2","Mannersdorf/Rabnitz Volksschule","47.42873815","16.52786935","1081","","","Level 0","2"
"at:41:10437:0:1","Unterloisdorf Volksschule","47.43483319","16.53586436","1081","","","Level 0","1"
"at:41:10437:0:2","Unterloisdorf Volksschule","47.43488788","16.53595419","1081","","","Level 0","2"
"at:41:10441:0:1","Klostermarienberg Feuerwehr","47.42236890","16.56491587","1081","","","Level 0","1"
"at:41:10441:0:2","Klostermarienberg Feuerwehr","47.42216225","16.56419722","1081","","","Level 0","2"
"at:41:10442:0:1","Unterloisdorf Ortsmitte","47.43565958","16.53476841","1081","","","Level 0","1"
"at:41:10442:0:2","Unterloisdorf Ortsmitte","47.43570212","16.53485824","1081","","","Level 0","2"
"at:41:10444:0:1","Langental Kirche","47.50340383","16.54362580","1124","","","Level 0","1"
"at:41:10445:0:1","Glashütten bei Langeck Feldgasse Ost","47.37450802","16.38364483","1079","","","Level 0","1"
"at:41:10445:0:2","Glashütten bei Langeck Feldgasse Ost","47.37447761","16.38369873","1079","","","Level 0","2"
"at:41:10446:0:1","Glashütten bei Langeck Florianigasse","47.37794504","16.38205481","1079","","","Level 0","1"
"at:41:10448:0:1","Unterschützen Kirche","47.32220727","16.20243667","1091","","","Level 0","1"
"at:41:10449:0:1","Rechnitz Hauptplatz","47.30533679","16.44056209","1109","","","Level 0","1"
"at:41:10449:0:2","Rechnitz Hauptplatz","47.30471547","16.44127176","1109","","","Level 0","2"
"at:41:10449:0:3","Rechnitz Hauptplatz","47.30478247","16.44086752","1109","","","Level 0","3"
"at:41:10450:0:1","Unterschützen Süd","47.31600784","16.20576044","1091","","","Level 0","1"
"at:41:10452:0:1","Rotenturm an der Pinka Abzw. Eisenzicken","47.26529507","16.25156554","1125","","","Level 0","1"
"at:41:10453:0:1","Oberwart Hauptplatz","47.28769316","16.21327035","1107","","","Level 0","A"
"at:41:10453:0:10","Oberwart Hauptplatz","47.28732756","16.21327934","1107","","","Level 0","J"
"at:41:10453:0:2","Oberwart Hauptplatz","47.28760785","16.21343205","1107","","","Level 0","B"
"at:41:10453:0:3","Oberwart Hauptplatz","47.28754083","16.21324341","1107","","","Level 0","C"
"at:41:10453:0:4","Oberwart Hauptplatz","47.28744943","16.21342307","1107","","","Level 0","D"
"at:41:10453:0:5","Oberwart Hauptplatz","47.28749208","16.21318052","1107","","","Level 0","E"
"at:41:10453:0:6","Oberwart Hauptplatz","47.28739458","16.21336019","1107","","","Level 0","F"
"at:41:10453:0:7","Oberwart Hauptplatz","47.28747989","16.21315357","1107","","","Level 0","G"
"at:41:10453:0:8","Oberwart Hauptplatz","47.28738240","16.21334222","1107","","","Level 0","H"
"at:41:10453:0:9","Oberwart Hauptplatz","47.28743114","16.21309069","1107","","","Level 0","I"
"at:41:10454:0:1","Oberwart Krankenhaus","47.28030132","16.20491602","1107","","","Level 0","1"
"at:41:10454:0:2","Oberwart Krankenhaus","47.28080714","16.20410754","1107","","","Level 0","2"
"at:41:10455:0:1","Oberwart Badgasse","47.28671821","16.20980286","1107","","","Level 0","1"
"at:41:10456:0:1","Riedlingsdorf Privatgasse","47.34821501","16.13322148","1110","","","Level 0","1"
"at:41:10456:0:2","Riedlingsdorf Privatgasse","47.34817849","16.13312267","1110","","","Level 0","2"
"at:41:10457:0:1","Pinkafeld Marktplatz","47.37093085","16.12275611","1108","","","Level 0","1"
"at:41:10457:0:2","Pinkafeld Marktplatz","47.37083959","16.12262136","1108","","","Level 0","2"
"at:41:10458:0:1","Pinkafeld Hocharter Straße","47.39062663","16.11251531","1108","","","Level 0","1"
"at:41:10458:0:3","Pinkafeld Hocharter Straße","47.39009145","16.11255125","1108","","","Level 0","3"
"at:41:10459:0:1","Litzelsdorf Ortsmitte","47.20769304","16.16172502","1126","","","Level 0","1"
"at:41:10460:0:1","Stegersbach P+R/Hauptplatz","47.15851961","16.16827374","1127","","","Level 0","1"
"at:41:10461:0:1","Rauchwart im Bgld Abzw. Badesee","47.13337192","16.22597253","1023","","","Level 0","1"
"at:41:10461:0:2","Rauchwart im Bgld Abzw. Badesee","47.13324358","16.22537964","1023","","","Level 0","2"
"at:41:10462:0:1","St. Michael im Bgld Abzw. Schallendorf","47.12836662","16.25827595","1024","","","Level 0","1"
"at:41:10462:0:2","St. Michael im Bgld Abzw. Schallendorf","47.12884945","16.25744950","1024","","","Level 0","2"
"at:41:10463:0:1","St. Michael im Bgld Hauptplatz","47.12590964","16.26903777","1024","","","Level 0","1"
"at:41:10463:0:2","St. Michael im Bgld Hauptplatz","47.12627024","16.26919048","1024","","","Level 0","2"
"at:41:10465:0:1","Tobaj Gemeindeamt","47.09141431","16.30444037","1028","","","Level 0","1"
"at:41:10465:0:2","Tobaj Gemeindeamt","47.09159167","16.30420681","1028","","","Level 0","2"
"at:41:10466:0:1","Pinkafeld HTL","47.36569849","16.12133677","1108","","","Level 0","1"
"at:41:10467:0:1","Stegersbach Berghäuser","47.15248427","16.14992116","1127","","","Level 0","1"
"at:41:10467:0:2","Stegersbach Berghäuser","47.15255758","16.15016371","1127","","","Level 0","2"
"at:41:10468:0:1","Pinkafeld Burgenlandsiedlung Nord","47.39583827","16.10717034","1108","","","Level 0","1"
"at:41:10468:0:2","Pinkafeld Burgenlandsiedlung Nord","47.39590516","16.10726017","1108","","","Level 0","2"
"at:41:10473:0:1","Weppersdorf Ortsmitte","47.58136297","16.42576684","1090","","","Level 0","1"
"at:41:10473:0:2","Weppersdorf Ortsmitte","47.58138721","16.42594650","1090","","","Level 0","2"
"at:41:10474:0:1","Weppersdorf Raiffeisenplatz","47.57859370","16.42687176","1090","","","Level 0","1"
"at:41:10474:0:2","Weppersdorf Raiffeisenplatz","47.57825435","16.42717719","1090","","","Level 0","2"
"at:41:10475:0:1","Weppersdorf Busbahnhof/P+R","47.58650119","16.42187713","1090","","","Level 0","1"
"at:41:10475:0:2","Weppersdorf Busbahnhof/P+R","47.58658602","16.42178730","1090","","","Level 0","2"
"at:41:10475:0:3","Weppersdorf Busbahnhof/P+R","47.58665267","16.42173340","1090","","","Level 0","3"
"at:41:10477:0:1","Hornstein Esterhazystraße","47.88613128","16.43905292","1003","","","Level 0","1"
"at:41:10477:0:2","Hornstein Esterhazystraße","47.88605296","16.43925055","1003","","","Level 0","2"
"at:41:10478:0:1","Hornstein Ortsmitte","47.88001640","16.44313127","1003","","","Level 0","1"
"at:41:10481:0:1","Güssing Badstraße","47.05719650","16.31895715","1015","","","Level 0","1"
"at:41:10481:0:2","Güssing Badstraße","47.05722098","16.31833731","1015","","","Level 0","2"
"at:41:10482:0:1","Güssing Raiffeisenstraße","47.06448485","16.32638622","1015","","","Level 0","1"
"at:41:10482:0:2","Güssing Raiffeisenstraße","47.06442366","16.32632333","1015","","","Level 0","2"
"at:41:10485:0:1","Steinberg/Rabnitz Meierhofgasse","47.46967014","16.49313150","1088","","","Level 0","1"
"at:41:10485:0:2","Steinberg/Rabnitz Meierhofgasse","47.47000413","16.49300573","1088","","","Level 0","2"
"at:41:10492:0:1","Burgauberg B57a/Marienkapelle","47.16217224","16.13213452","1122","","","Level 0","1"
"at:41:10492:0:2","Burgauberg B57a/Marienkapelle","47.16256315","16.13064332","1122","","","Level 0","2"
"at:41:10493:0:1","Burgauberg Golfstraße","47.16070633","16.12520851","1122","","","Level 0","1"
"at:41:10493:0:2","Burgauberg Golfstraße","47.16129270","16.12563072","1122","","","Level 0","2"
"at:41:10494:0:1","Burgauberg Lafnitzstraße","47.15270419","16.11462635","1122","","","Level 0","1"
"at:41:10494:0:2","Burgauberg Lafnitzstraße","47.15297299","16.11485992","1122","","","Level 0","2"
"at:41:10496:0:1","Burgauberg Bergstraße","47.13945220","16.12298069","1122","","","Level 0","1"
"at:41:10498:0:1","Burgauberg Alte Volksschule","47.15099366","16.12298069","1122","","","Level 0","1"
"at:41:10499:0:1","Burgauberg Gemeindeamt","47.15498279","16.12425629","1122","","","Level 0","1"
"at:41:10500:0:1","Markt Allhau Abzw. Berghäuser","47.28060603","16.11167988","1102","","","Level 0","1"
"at:41:10500:0:2","Markt Allhau Abzw. Berghäuser","47.28072182","16.11106903","1102","","","Level 0","2"
"at:41:10502:0:1","Jormannsdorf Meierhofweg","47.34405171","16.23181158","1091","","","Level 0","1"
"at:41:10502:0:2","Jormannsdorf Meierhofweg","47.34411866","16.23158700","1091","","","Level 0","2"
"at:41:10503:0:2","Markt Allhau Hutweide","47.28950288","16.08036461","1102","","","Level 0","2"
"at:41:10504:0:1","Jormannsdorf Königsberger Allee","47.34717421","16.23011377","1091","","","Level 0","1"
"at:41:10504:0:2","Jormannsdorf Königsberger Allee","47.34707074","16.23003292","1091","","","Level 0","2"
"at:41:10508:0:1","Oberwart Wiener Straße/P+R","47.29635731","16.20532026","1107","","","Level 0","1"
"at:41:10508:0:2","Oberwart Wiener Straße/P+R","47.29596130","16.20576044","1107","","","Level 0","2"
"at:41:10509:0:1","Oberwart Johann-Strauß-Gasse Ost","47.29153188","16.20727859","1107","","","Level 0","1"
"at:41:10509:0:2","Oberwart Johann-Strauß-Gasse Ost","47.29131863","16.20764690","1107","","","Level 0","2"
"at:41:10510:0:1","Oberwart Mühlgasse Süd","47.28719959","16.19384878","1107","","","Level 0","1"
"at:41:10510:0:2","Oberwart Mühlgasse Süd","47.28766270","16.19462133","1107","","","Level 0","2"
"at:41:10512:0:1","Pinkafeld Mittelschule","47.36735952","16.12526241","1108","","","Level 0","1"
"at:41:10513:0:1","Pinkafeld Schloßgasse","47.36704922","16.12337594","1108","","","Level 0","1"
"at:41:10513:0:2","Pinkafeld Schloßgasse","47.36693362","16.12268424","1108","","","Level 0","2"
"at:41:10519:0:1","Stegersbach HAK","47.16338770","16.15905703","1127","","","Level 0","1"
"at:41:10519:0:2","Stegersbach HAK","47.16346710","16.15886838","1127","","","Level 0","2"
"at:41:10520:0:1","Stegersbach Oberbergen","47.16032152","16.14647163","1127","","","Level 0","1"
"at:41:10520:0:2","Stegersbach Oberbergen","47.16044979","16.14662434","1127","","","Level 0","2"
"at:41:10523:0:1","Steinbrückl Abzw. Markt Allhau","47.27618752","16.15655073","1107","","","Level 0","1"
"at:41:10523:0:2","Steinbrückl Abzw. Markt Allhau","47.27471866","16.15569733","1107","","","Level 0","2"
"at:41:10523:0:3","Steinbrückl Abzw. Markt Allhau","47.27552318","16.15788922","1107","","","Level 0","3"
"at:41:10528:0:1","Unterwaldbauern Landesstraße","47.37195901","16.08643722","1100","","","Level 0","1"
"at:41:10528:0:2","Unterwaldbauern Landesstraße","47.37147839","16.08538619","1100","","","Level 0","2"
"at:41:10529:0:1","Wolfau Abzw. Obere Bergen","47.26859900","16.08787452","1119","","","Level 0","1"
"at:41:10529:0:2","Wolfau Abzw. Obere Bergen","47.26909884","16.08772181","1119","","","Level 0","2"
"at:41:10533:0:1","Wolfau Kemeter Straße","47.25274190","16.10447539","1119","","","Level 0","1"
"at:41:10533:0:2","Wolfau Kemeter Straße","47.25282726","16.10429573","1119","","","Level 0","2"
"at:41:10534:0:1","Wolfau Untere Bergen","47.24675386","16.10386454","1119","","","Level 0","1"
"at:41:10534:0:2","Wolfau Untere Bergen","47.24692460","16.10346928","1119","","","Level 0","2"
"at:41:10562:0:1","Lutzmannsburg Therme","47.46555895","16.65788252","1124","","","Level 0","1"
"at:41:10565:0:1","Hackerberg Volksschule","47.19426554","16.11398855","1016","","","Level 0","1"
"at:41:10565:0:2","Hackerberg Volksschule","47.19454022","16.11480602","1016","","","Level 0","2"
"at:41:10566:0:1","Hackerberg Csarhäuser","47.18543205","16.11413228","1016","","","Level 0","1"
"at:41:10566:0:2","Hackerberg Csarhäuser","47.18550531","16.11428499","1016","","","Level 0","2"
"at:41:10568:0:1","Strebersdorf im Bgld Kirche","47.45530687","16.61444898","1124","","","Level 0","1"
"at:41:10568:0:2","Strebersdorf im Bgld Kirche","47.45546480","16.61467356","1124","","","Level 0","2"
"at:41:10570:0:1","Neudauberg Landesgrenze","47.17270728","16.10795187","1016","","","Level 0","1"
"at:41:10570:0:2","Neudauberg Landesgrenze","47.17265232","16.10790696","1016","","","Level 0","2"
"at:41:10582:0:1","Hirm Hauptstraße","47.78815826","16.45883382","1051","","","Level 0","1"
"at:41:10582:0:2","Hirm Hauptstraße","47.78819448","16.45905840","1051","","","Level 0","2"
"at:41:10583:0:1","Hirm Kirche","47.78723482","16.45479140","1051","","","Level 0","1"
"at:41:10583:0:2","Hirm Kirche","47.78733139","16.45422546","1051","","","Level 0","2"
"at:41:10584:0:1","Hirm Kleinfrauenhaider Straße","47.78305194","16.45246477","1051","","","Level 0","1"
"at:41:10584:0:2","Hirm Kleinfrauenhaider Straße","47.78276221","16.45233002","1051","","","Level 0","2"
"at:41:10585:0:1","Kleinfrauenhaid Friedhof","47.77383394","16.43776833","1051","","","Level 0","1"
"at:41:10585:0:2","Kleinfrauenhaid Friedhof","47.77379168","16.43783121","1051","","","Level 0","2"
"at:41:10586:0:1","Krensdorf Gemeindeamt","47.78465149","16.41576859","1051","","","Level 0","1"
"at:41:10586:0:2","Krensdorf Gemeindeamt","47.78570778","16.41529248","1051","","","Level 0","2"
"at:41:18100:0:1","Sulzriegel Glockenturm","47.33927934","16.23542281","1091","","","Level 0","1"
"at:41:18100:0:2","Sulzriegel Glockenturm","47.33979677","16.23552162","1091","","","Level 0","2"
"at:41:18266:0:1","Langzeil Tränkbrücke","47.03912740","16.29287906","1015","","","Level 0","1"
"at:41:18266:0:2","Langzeil Tränkbrücke","47.03926821","16.29284312","1015","","","Level 0","2"
"at:41:18278:0:1","Neutal Technologiezentrum","47.53996616","16.43352828","1089","","","Level 0","1"
"at:41:18278:0:2","Neutal Technologiezentrum","47.53970540","16.43333065","1089","","","Level 0","2"
"at:41:18279:0:1","Hammerteich Friedhof","47.41005364","16.43660950","1079","","","Level 0","1"
"at:41:18279:0:2","Hammerteich Friedhof","47.41027857","16.43761561","1079","","","Level 0","2"
"at:41:18280:0:1","Hammerteich Abzw. Teich","47.40982870","16.43144419","1079","","","Level 0","1"
"at:41:18280:0:2","Hammerteich Abzw. Teich","47.40956121","16.43163283","1079","","","Level 0","2"
"at:41:18286:0:1","Rechnitz Haydngasse","47.29797787","16.44418230","1109","","","Level 0","1"
"at:41:18286:0:2","Rechnitz Haydngasse","47.29841042","16.44437993","1109","","","Level 0","2"
"at:41:18291:0:1","Großpetersdorf Sportplatzgasse","47.24011866","16.32348466","1095","","","Level 0","1"
"at:41:18291:0:2","Großpetersdorf Sportplatzgasse","47.24022234","16.32390687","1095","","","Level 0","2"
"at:41:18292:0:1","Unterwart Obere Mühlgasse","47.26436847","16.22885613","1125","","","Level 0","1"
"at:41:18292:0:2","Unterwart Obere Mühlgasse","47.26420997","16.22883816","1125","","","Level 0","2"
"at:41:18293:0:1","Unterwart Rosengasse","47.26744082","16.22643966","1125","","","Level 0","1"
"at:41:18293:0:2","Unterwart Rosengasse","47.26789190","16.22590067","1125","","","Level 0","2"
"at:41:18295:0:1","Oberwart Fichtengasse","47.28184924","16.22104977","1107","","","Level 0","1"
"at:41:18295:0:2","Oberwart Fichtengasse","47.28152625","16.22153486","1107","","","Level 0","2"
"at:41:18299:0:1","Rax Bergen Nord","46.96829780","16.17061835","1035","","","Level 0","1"
"at:41:18299:0:2","Rax Bergen Nord","46.96837136","16.17079801","1035","","","Level 0","2"
"at:41:18300:0:1","Neumarkt/Raab Jennersdorfer Straße Süd","46.92714267","16.15925466","1042","","","Level 0","1"
"at:41:18300:0:2","Neumarkt/Raab Jennersdorfer Straße Süd","46.92710586","16.15934449","1042","","","Level 0","2"
"at:41:18301:0:1","Neumarkt/Raab Münzgraben Nord","46.92516722","16.15779040","1042","","","Level 0","1"
"at:41:18301:0:2","Neumarkt/Raab Münzgraben Nord","46.92500770","16.15776345","1042","","","Level 0","2"
"at:41:18303:0:1","St. Martin/Raab Hauptplatz","46.92105043","16.13328436","1042","","","Level 0","1"
"at:41:18303:0:2","St. Martin/Raab Hauptplatz","46.92105043","16.13401200","1042","","","Level 0","2"
"at:41:18305:0:1","St. Martin/Raab Martinihalle","46.91968832","16.12452579","1042","","","Level 0","1"
"at:41:18305:0:2","St. Martin/Raab Martinihalle","46.91954106","16.12452579","1042","","","Level 0","2"
"at:41:18306:0:1","Eisenberg Oberberg Süd","46.89207056","16.13645541","1042","","","Level 0","1"
"at:41:18307:0:1","St. Martin an der Raab Oberdrosener Straße","46.90496676","16.13469472","1042","","","Level 0","1"
"at:41:18308:0:1","Oberdrosen Feuerwehr","46.88733115","16.11832741","1043","","","Level 0","1"
"at:41:18308:0:2","Oberdrosen Feuerwehr","46.88749691","16.11881250","1043","","","Level 0","2"
"at:41:18309:0:1","Oberdrosen Süd","46.88032564","16.10624507","1043","","","Level 0","1"
"at:41:18309:0:2","Oberdrosen Süd","46.88037476","16.10653253","1043","","","Level 0","2"
"at:41:18310:0:1","Eisenberg Mitterberg","46.90148675","16.14048885","1042","","","Level 0","1"
"at:41:18311:0:1","Eisenberg Rasenkreuz","46.90494834","16.14211480","1042","","","Level 0","1"
"at:41:18312:0:1","Deutsch Minihof Ziegelofen","46.96075720","16.24852025","1038","","","Level 0","1"
"at:41:18312:0:2","Deutsch Minihof Ziegelofen","46.96154810","16.24975992","1038","","","Level 0","2"
"at:41:18313:0:1","Mogersdorf West","46.94751875","16.22721221","1038","","","Level 0","1"
"at:41:18313:0:2","Mogersdorf West","46.94743290","16.22725712","1038","","","Level 0","2"
"at:41:18314:0:1","Jennersdorf Wollingergasse","46.93579824","16.14694774","1035","","","Level 0","1"
"at:41:18314:0:2","Jennersdorf Wollingergasse","46.93580437","16.14709147","1035","","","Level 0","2"
"at:41:18316:0:1","Steingraben Ort","47.06457663","16.27667345","1015","","","Level 0","1"
"at:41:18317:0:1","Jennersdorf Grabengasse West","46.95002076","16.14419889","1035","","","Level 0","1"
"at:41:18317:0:2","Jennersdorf Grabengasse West","46.94995943","16.14427076","1035","","","Level 0","2"
"at:41:18318:0:1","Jennersdorf Bergen Süd","46.95981302","16.14580688","1035","","","Level 0","1"
"at:41:18319:0:1","Jennersdorf Bergen Mitte","46.96633612","16.14723520","1035","","","Level 0","1"
"at:41:18320:0:1","Hoislgraben Gh. Körbler","46.96114959","16.15111592","1035","","","Level 0","1"
"at:41:18321:0:1","Hoislgraben Haus Deutsch","46.95373676","16.14962472","1035","","","Level 0","1"
"at:41:18322:0:1","Jennersdorf Bergen Nord","46.97272970","16.14435161","1035","","","Level 0","1"
"at:41:18322:0:2","Jennersdorf Bergen Nord","46.97244160","16.14472890","1035","","","Level 0","2"
"at:41:18323:0:1","Rudersdorf Kirche","47.04881154","16.12227102","1041","","","Level 0","1"
"at:41:18323:0:2","Rudersdorf Kirche","47.04871360","16.12233390","1041","","","Level 0","2"
"at:41:18324:0:1","Henndorf Mitterhenndorf Mitte","46.98073438","16.14241125","1034","","","Level 0","1"
"at:41:18324:0:2","Henndorf Mitterhenndorf Mitte","46.98072825","16.14255498","1034","","","Level 0","2"
"at:41:18325:0:1","Zahling Ort","47.02528374","16.21261458","1031","","","Level 0","1"
"at:41:18326:0:1","Dobersdorf B65/Kirchenstraße","47.02454278","16.14580688","1030","","","Level 0","1"
"at:41:18326:0:2","Dobersdorf B65/Kirchenstraße","47.02475711","16.14548348","1030","","","Level 0","2"
"at:41:18327:0:1","Königsdorf im Bgld Abzw. Ort","47.01255740","16.17669096","1036","","","Level 0","1"
"at:41:18327:0:2","Königsdorf im Bgld Abzw. Ort","47.01267990","16.17689757","1036","","","Level 0","2"
"at:41:18328:0:1","Königsdorf im Bgld Gemeindeamt","47.00189261","16.16894748","1036","","","Level 0","1"
"at:41:18328:0:2","Königsdorf im Bgld Gemeindeamt","47.00185585","16.16910019","1036","","","Level 0","2"
"at:41:18329:0:1","Rax Abzw. Kandlgraben","46.96154810","16.15735921","1035","","","Level 0","1"
"at:41:18329:0:2","Rax Abzw. Kandlgraben","46.96160941","16.15758379","1035","","","Level 0","2"
"at:41:18330:0:1","Rax Abzw. Körblereck","46.95302546","16.15608360","1035","","","Level 0","1"
"at:41:18330:0:2","Rax Abzw. Körblereck","46.95459520","16.15669446","1035","","","Level 0","2"
"at:41:18331:0:1","Eltendorf Kirche","47.00804304","16.19803493","1031","","","Level 0","1"
"at:41:18331:0:2","Eltendorf Kirche","47.00815943","16.19806188","1031","","","Level 0","2"
"at:41:18332:0:1","Eltendorf Siedlungsstraße","47.00625434","16.20082869","1031","","","Level 0","1"
"at:41:18332:0:2","Eltendorf Siedlungsstraße","47.00647487","16.20113412","1031","","","Level 0","2"
"at:41:18333:0:1","Poppendorf im Bgld Ortsmitte","46.99643382","16.22616118","1033","","","Level 0","1"
"at:41:18333:0:2","Poppendorf im Bgld Ortsmitte","46.99620099","16.22797578","1033","","","Level 0","2"
"at:41:18334:0:1","Poppendorf im Bgld West","47.00069797","16.21628869","1033","","","Level 0","1"
"at:41:18334:0:2","Poppendorf im Bgld West","47.00044066","16.21711514","1033","","","Level 0","2"
"at:41:18335:0:1","Neuhaus am Klausenbach Altenhof Abzw. Ort","46.87264369","16.04611185","1043","","","Level 0","1"
"at:41:18335:0:2","Neuhaus am Klausenbach Altenhof Abzw. Ort","46.87230593","16.04583337","1043","","","Level 0","2"
"at:41:18335:0:3","Neuhaus am Klausenbach Altenhof Abzw. Ort","46.87145231","16.04594117","1043","","","Level 0","3"
"at:41:18335:0:4","Neuhaus am Klausenbach Altenhof Abzw. Ort","46.87145845","16.04583337","1043","","","Level 0","4"
"at:41:18336:0:1","Neuhaus am Klausenbach Altenhof Eritz","46.87023019","16.04923798","1043","","","Level 0","1"
"at:41:18336:0:2","Neuhaus am Klausenbach Altenhof Eritz","46.87010736","16.04926493","1043","","","Level 0","2"
"at:41:18337:0:1","Neuhaus am Klausenbach Altenhof Mitte","46.86629343","16.05638857","1043","","","Level 0","1"
"at:41:18337:0:2","Neuhaus am Klausenbach Altenhof Mitte","46.86640399","16.05577772","1043","","","Level 0","2"
"at:41:18338:0:1","Neuhaus am Klausenbach Ortsmitte","46.86892820","16.03080455","1043","","","Level 0","1"
"at:41:18338:0:2","Neuhaus am Klausenbach Ortsmitte","46.86833862","16.03034641","1043","","","Level 0","2"
"at:41:18339:0:1","Neuhaus am Klausenbach Schulen","46.87018106","16.03315814","1043","","","Level 0","1"
"at:41:18339:0:2","Neuhaus am Klausenbach Schulen","46.87050041","16.03360730","1043","","","Level 0","2"
"at:41:18340:0:1","Neuhaus am Klausenbach Bachstraße","46.86629343","16.02626806","1043","","","Level 0","1"
"at:41:18340:0:2","Neuhaus am Klausenbach Bachstraße","46.86642241","16.02643874","1043","","","Level 0","2"
"at:41:18341:0:1","Neuhaus am Klausenbach Steinleiten Nord","46.86846145","16.03616750","1043","","","Level 0","1"
"at:41:18341:0:2","Neuhaus am Klausenbach Steinleiten Nord","46.86857200","16.03645496","1043","","","Level 0","2"
"at:41:18342:0:1","Krottendorf bei Neuhaus Abzw. Bonisdorf","46.84954825","16.03593393","1037","","","Level 0","1"
"at:41:18342:0:2","Krottendorf bei Neuhaus Abzw. Bonisdorf","46.84941308","16.03596088","1037","","","Level 0","2"
"at:41:18343:0:1","Kalch im Bgld Feuerwehr","46.83988944","16.01050263","1037","","","Level 0","1"
"at:41:18344:0:1","Windisch-Minihof Ort","46.89048671","16.09450409","1043","","","Level 0","1"
"at:41:18344:0:2","Windisch-Minihof Ort","46.89106378","16.09578868","1043","","","Level 0","2"
"at:41:18345:0:1","Minihof-Liebau Doiber Straße","46.88260360","16.07468726","1043","","","Level 0","1"
"at:41:18345:0:2","Minihof-Liebau Doiber Straße","46.88270798","16.07518133","1043","","","Level 0","2"
"at:41:18346:0:1","Minihof-Liebau Abzw. Judenburg","46.88162734","16.06671022","1043","","","Level 0","1"
"at:41:18346:0:2","Minihof-Liebau Abzw. Judenburg","46.88149840","16.06700666","1043","","","Level 0","2"
"at:41:18347:0:1","Minihof-Liebau Abzw. Theresienberg","46.87886425","16.05918233","1043","","","Level 0","1"
"at:41:18347:0:2","Minihof-Liebau Abzw. Theresienberg","46.87896249","16.05939793","1043","","","Level 0","2"
"at:41:18348:0:1","Minihof-Liebau Abzw. Mühlgraben","46.88252378","16.07222587","1043","","","Level 0","1"
"at:41:18348:0:2","Minihof-Liebau Abzw. Mühlgraben","46.88230888","16.07217197","1043","","","Level 0","2"
"at:41:18349:0:1","Tauka Feuerwehr","46.86284162","16.07373504","1043","","","Level 0","1"
"at:41:18349:0:2","Tauka Feuerwehr","46.86280477","16.07380691","1043","","","Level 0","2"
"at:41:18350:0:1","Mühlgraben Ortsmitte","46.88671721","16.03744310","1043","","","Level 0","1"
"at:41:18351:0:1","Mühlgraben Groiskyweg","46.88952287","16.05179818","1043","","","Level 0","1"
"at:41:18351:0:2","Mühlgraben Groiskyweg","46.88917908","16.05257073","1043","","","Level 0","2"
"at:41:18352:0:1","Tauka West","46.86230111","16.06529986","1043","","","Level 0","1"
"at:41:18352:0:2","Tauka West","46.86225811","16.06515613","1043","","","Level 0","2"
"at:41:18353:0:1","Rax Ost","46.94145949","16.16883070","1035","","","Level 0","1"
"at:41:18353:0:2","Rax Ost","46.94145949","16.16809408","1035","","","Level 0","2"
"at:41:18354:0:1","Maria Bild Ortsmitte","46.95916925","16.18419189","1038","","","Level 0","1"
"at:41:18354:0:2","Maria Bild Ortsmitte","46.95928575","16.18416494","1038","","","Level 0","2"
"at:41:18356:0:1","Rax Bergen Hobischberg","46.96355899","16.17201972","1035","","","Level 0","1"
"at:41:18356:0:2","Rax Bergen Hobischberg","46.96320341","16.17226226","1035","","","Level 0","2"
"at:41:18357:0:1","Henndorf Abzw. Hobischberg","46.97493631","16.17176819","1034","","","Level 0","1"
"at:41:18357:0:2","Henndorf Abzw. Hobischberg","46.97461146","16.17199277","1034","","","Level 0","2"
"at:41:18357:0:3","Henndorf Abzw. Hobischberg","46.97464823","16.17186700","1034","","","Level 0","3"
"at:41:18358:0:1","Maria Bild Süd","46.95599934","16.18634785","1038","","","Level 0","1"
"at:41:18358:0:2","Maria Bild Süd","46.95552108","16.18680599","1038","","","Level 0","2"
"at:41:18359:0:1","Henndorf Abzw. Retzelberg","46.97790285","16.16106925","1034","","","Level 0","1"
"at:41:18360:0:1","Henndorf Florianikapelle","46.97984571","16.15378392","1034","","","Level 0","1"
"at:41:18360:0:2","Henndorf Florianikapelle","46.97995603","16.15381087","1034","","","Level 0","2"
"at:41:18361:0:1","Henndorf Volksschule","46.98245652","16.14679502","1034","","","Level 0","1"
"at:41:18361:0:2","Henndorf Volksschule","46.98281197","16.14694774","1034","","","Level 0","2"
"at:41:18362:0:1","Krobotek West","46.97533472","16.17644841","1038","","","Level 0","1"
"at:41:18362:0:2","Krobotek West","46.97516923","16.17655621","1038","","","Level 0","2"
"at:41:18363:0:1","Krobotek Zipf","46.97151602","16.19096519","1038","","","Level 0","1"
"at:41:18363:0:2","Krobotek Zipf","46.97144246","16.19095620","1038","","","Level 0","2"
"at:41:18364:0:1","Krobotek Kirche","46.97087239","16.19463031","1038","","","Level 0","1"
"at:41:18364:0:2","Krobotek Kirche","46.97074979","16.19488184","1038","","","Level 0","2"
"at:41:18365:0:1","Krobotek Ost","46.96982418","16.20120598","1038","","","Level 0","1"
"at:41:18365:0:2","Krobotek Ost","46.96970158","16.20108022","1038","","","Level 0","2"
"at:41:18366:0:1","Rosendorf West","46.97713058","16.20492501","1038","","","Level 0","1"
"at:41:18366:0:2","Rosendorf West","46.97705090","16.20478128","1038","","","Level 0","2"
"at:41:18367:0:1","Güssing Bergstraße","47.04801581","16.32505671","1015","","","Level 0","1"
"at:41:18367:0:2","Güssing Bergstraße","47.04840143","16.32476925","1015","","","Level 0","2"
"at:41:18368:0:1","Kleinmürbisch Süd","47.02307308","16.32984473","1014","","","Level 0","1"
"at:41:18368:0:2","Kleinmürbisch Süd","47.02288324","16.33017711","1014","","","Level 0","2"
"at:41:18369:0:1","Kleinmürbisch Nord","47.03255808","16.32484111","1014","","","Level 0","1"
"at:41:18369:0:2","Kleinmürbisch Nord","47.03272952","16.32475128","1014","","","Level 0","2"
"at:41:18370:0:1","Kleinmürbisch Friedhof","47.02658805","16.32418534","1014","","","Level 0","1"
"at:41:18370:0:2","Kleinmürbisch Friedhof","47.02660030","16.32427517","1014","","","Level 0","2"
"at:41:18371:0:1","Inzenhof Ost","47.01189589","16.31920868","1014","","","Level 0","1"
"at:41:18371:0:2","Inzenhof Ost","47.01177338","16.31954105","1014","","","Level 0","2"
"at:41:18372:0:1","Inzenhof Ortsmitte","47.01234302","16.31663949","1014","","","Level 0","1"
"at:41:18372:0:2","Inzenhof Ortsmitte","47.01286977","16.31481591","1014","","","Level 0","2"
"at:41:18373:0:1","Tschanigraben West","47.00552537","16.30011948","1014","","","Level 0","1"
"at:41:18373:0:2","Tschanigraben West","47.00547636","16.30021829","1014","","","Level 0","2"
"at:41:18374:0:1","Tschanigraben Ost","47.00744273","16.31348641","1014","","","Level 0","1"
"at:41:18374:0:2","Tschanigraben Ost","47.00748561","16.31362116","1014","","","Level 0","2"
"at:41:18375:0:1","Inzenhof West","47.01716324","16.29212447","1014","","","Level 0","1"
"at:41:18375:0:2","Inzenhof West","47.01707137","16.29250176","1014","","","Level 0","2"
"at:41:18376:0:1","Langzeil Abzw. Inzenhof","47.01819215","16.28795629","1014","","","Level 0","1"
"at:41:18376:0:2","Langzeil Abzw. Inzenhof","47.01821665","16.28805510","1014","","","Level 0","2"
"at:41:18377:0:1","Großmürbisch Hütterische Häuser Mitte","47.01958850","16.33729176","1014","","","Level 0","1"
"at:41:18377:0:2","Großmürbisch Hütterische Häuser Mitte","47.01964362","16.33705820","1014","","","Level 0","2"
"at:41:18378:0:1","Großmürbisch Zollhaus","47.01884133","16.35373992","1014","","","Level 0","1"
"at:41:18378:0:2","Großmürbisch Zollhaus","47.01897607","16.35376687","1014","","","Level 0","2"
"at:41:18380:0:1","Großmürbisch Kirche","47.01680802","16.36098932","1014","","","Level 0","1"
"at:41:18380:0:2","Großmürbisch Kirche","47.01656303","16.36121390","1014","","","Level 0","2"
"at:41:18381:0:1","Großmürbisch Ost","47.01493386","16.36493292","1014","","","Level 0","1"
"at:41:18381:0:2","Großmürbisch Ost","47.01490324","16.36484309","1014","","","Level 0","2"
"at:41:18382:0:1","Reinersdorf Abzw. Bergen","47.01152838","16.38290821","1017","","","Level 0","1"
"at:41:18382:0:2","Reinersdorf Abzw. Bergen","47.01152225","16.38326754","1017","","","Level 0","2"
"at:41:18383:0:1","Reinersdorf West","47.01025433","16.38889099","1017","","","Level 0","1"
"at:41:18383:0:2","Reinersdorf West","47.01046871","16.38918744","1017","","","Level 0","2"
"at:41:18384:0:1","Reinersdorf Ost","47.01196939","16.39750584","1017","","","Level 0","1"
"at:41:18384:0:2","Reinersdorf Ost","47.01187139","16.39725431","1017","","","Level 0","2"
"at:41:18385:0:1","Heiligenbrunn Kellerviertel","47.02774537","16.41398094","1017","","","Level 0","1"
"at:41:18385:0:2","Heiligenbrunn Kellerviertel","47.02787396","16.41403484","1017","","","Level 0","2"
"at:41:18386:0:1","Heiligenbrunn Zollhaus","47.02271790","16.42229934","1017","","","Level 0","1"
"at:41:18386:0:2","Heiligenbrunn Zollhaus","47.02265053","16.42222747","1017","","","Level 0","2"
"at:41:18387:0:1","Deutsch Bieling Ort","47.01154063","16.43073452","1017","","","Level 0","1"
"at:41:18387:0:2","Deutsch Bieling Ort","47.01138750","16.43119266","1017","","","Level 0","2"
"at:41:18388:0:1","Hagensdorf Ortsmitte","47.01437038","16.45561785","1017","","","Level 0","1"
"at:41:18388:0:2","Hagensdorf Ortsmitte","47.01446225","16.45571667","1017","","","Level 0","2"
"at:41:18389:0:1","Hagensdorf Ost","47.01469500","16.45883382","1017","","","Level 0","1"
"at:41:18389:0:2","Hagensdorf Ost","47.01484812","16.45886975","1017","","","Level 0","2"
"at:41:18390:0:1","Luising Ort","47.01263702","16.47934236","1017","","","Level 0","1"
"at:41:18390:0:2","Luising Ort","47.01274115","16.47955795","1017","","","Level 0","2"
"at:41:18391:0:1","Heiligenbrunn Abzw. Hochberg","47.02331191","16.41277720","1017","","","Level 0","1"
"at:41:18391:0:2","Heiligenbrunn Abzw. Hochberg","47.02336702","16.41263347","1017","","","Level 0","2"
"at:41:18392:0:1","Inzenhof Landesstraße","47.01664265","16.29950862","1014","","","Level 0","1"
"at:41:18392:0:2","Inzenhof Landesstraße","47.01641604","16.29983202","1014","","","Level 0","2"
"at:41:18393:0:1","Inzenhof Schabhüttl","47.01326177","16.30989315","1014","","","Level 0","1"
"at:41:18393:0:2","Inzenhof Schabhüttl","47.01318215","16.30986620","1014","","","Level 0","2"
"at:41:18394:0:1","Tschanigraben Feuerwehr","47.00668927","16.30485360","1014","","","Level 0","1"
"at:41:18394:0:2","Tschanigraben Feuerwehr","47.00673828","16.30506919","1014","","","Level 0","2"
"at:41:18395:0:1","Inzenhof Nord","47.01864535","16.32402365","1014","","","Level 0","1"
"at:41:18395:0:2","Inzenhof Nord","47.01869435","16.32416738","1014","","","Level 0","2"
"at:41:18396:0:1","Sulz im Bgld Untere Hauptstraße","47.07484959","16.27079847","1013","","","Level 0","1"
"at:41:18396:0:2","Sulz im Bgld Untere Hauptstraße","47.07489853","16.27061880","1013","","","Level 0","2"
"at:41:18397:0:1","Kukmirn Marktplatz","47.07613434","16.21100660","1019","","","Level 0","1"
"at:41:18397:0:2","Kukmirn Marktplatz","47.07617104","16.21029693","1019","","","Level 0","2"
"at:41:18398:0:1","Neusiedl bei Güssing Pfarrkirche","47.08061847","16.17570281","1018","","","Level 0","1"
"at:41:18398:0:2","Neusiedl bei Güssing Pfarrkirche","47.08072246","16.17574773","1018","","","Level 0","2"
"at:41:18399:0:1","Heutal Ortsmitte","47.08046553","16.15407138","1018","","","Level 0","1"
"at:41:18399:0:2","Heutal Ortsmitte","47.08058176","16.15409833","1018","","","Level 0","2"
"at:41:18400:0:1","Heutal Fliederberg","47.07888726","16.14657045","1018","","","Level 0","1"
"at:41:18400:0:2","Heutal Fliederberg","47.07865479","16.14617519","1018","","","Level 0","2"
"at:41:18401:0:1","Luising Hagensdorfer Straße","47.01391714","16.47853388","1017","","","Level 0","1"
"at:41:18401:0:2","Luising Hagensdorfer Straße","47.01414376","16.47893812","1017","","","Level 0","2"
"at:41:18402:0:1","Deutsch Kaltenbrunn Unterberg","47.08032484","16.12498393","1029","","","Level 0","1"
"at:41:18402:0:2","Deutsch Kaltenbrunn Unterberg","47.08037989","16.12512766","1029","","","Level 0","2"
"at:41:18403:0:1","Deutsch Kaltenbrunn Kracherberg","47.09303503","16.12340289","1029","","","Level 0","1"
"at:41:18403:0:2","Deutsch Kaltenbrunn Kracherberg","47.09305337","16.12351967","1029","","","Level 0","2"
"at:41:18404:0:1","Deutsch Kaltenbrunn Gemeindeamt","47.08772011","16.10657745","1029","","","Level 0","1"
"at:41:18404:0:2","Deutsch Kaltenbrunn Gemeindeamt","47.08798312","16.10656847","1029","","","Level 0","2"
"at:41:18405:0:1","Rudersdorf Abzw. Bergen","47.05887334","16.11737520","1041","","","Level 0","1"
"at:41:18405:0:2","Rudersdorf Abzw. Bergen","47.05827360","16.11741113","1041","","","Level 0","2"
"at:41:18406:0:1","Rudersdorf Abzw. Weichenberg","47.06818677","16.11379092","1041","","","Level 0","1"
"at:41:18406:0:2","Rudersdorf Abzw. Weichenberg","47.06784413","16.11369211","1041","","","Level 0","2"
"at:41:18407:0:1","Deutsch Kaltenbrunn Mitterberg","47.08682711","16.12186677","1029","","","Level 0","1"
"at:41:18407:0:2","Deutsch Kaltenbrunn Mitterberg","47.08652128","16.12188474","1029","","","Level 0","2"
"at:41:18408:0:1","Rudersdorf Bergen Abzw. Unterberg","47.07360152","16.13151468","1041","","","Level 0","1"
"at:41:18408:0:2","Rudersdorf Bergen Abzw. Unterberg","47.07363211","16.13162248","1041","","","Level 0","2"
"at:41:18408:0:3","Rudersdorf Bergen Abzw. Unterberg","47.07311820","16.13198180","1041","","","Level 0","3"
"at:41:18408:0:4","Rudersdorf Bergen Abzw. Unterberg","47.07316714","16.13203570","1041","","","Level 0","4"
"at:41:18409:0:1","Deutsch Kaltenbrunn Katholische Kirche","47.09024002","16.10639779","1029","","","Level 0","1"
"at:41:18409:0:2","Deutsch Kaltenbrunn Katholische Kirche","47.09038681","16.10571507","1029","","","Level 0","2"
"at:41:18410:0:1","Deutsch Kaltenbrunn Volksschule","47.08313871","16.10848188","1029","","","Level 0","1"
"at:41:18410:0:2","Deutsch Kaltenbrunn Volksschule","47.08307142","16.10841899","1029","","","Level 0","2"
"at:41:18411:0:1","Deutsch Kaltenbrunn Holzstraße","47.09085163","16.11523721","1029","","","Level 0","1"
"at:41:18411:0:2","Deutsch Kaltenbrunn Holzstraße","47.09074766","16.11546179","1029","","","Level 0","2"
"at:41:18412:0:1","Langzeil B57","47.03850907","16.30000270","1015","","","Level 0","1"
"at:41:18412:0:2","Langzeil B57","47.03858866","16.30019134","1015","","","Level 0","2"
"at:41:18413:0:1","Langzeil Mitte","47.03364180","16.30333545","1015","","","Level 0","1"
"at:41:18413:0:2","Langzeil Mitte","47.03370302","16.30329053","1015","","","Level 0","2"
"at:41:18414:0:1","Langzeil West","47.03341526","16.29463077","1015","","","Level 0","1"
"at:41:18414:0:2","Langzeil West","47.03346424","16.29458585","1015","","","Level 0","2"
"at:41:18415:0:1","Langzeil Alte Landstraße","47.02938640","16.28707594","1015","","","Level 0","1"
"at:41:18415:0:2","Langzeil Alte Landstraße","47.02947824","16.28707594","1015","","","Level 0","2"
"at:41:18416:0:1","Langzeil Süd","47.02285875","16.28731848","1015","","","Level 0","1"
"at:41:18416:0:2","Langzeil Süd","47.02271177","16.28732747","1015","","","Level 0","2"
"at:41:18417:0:1","Neustift bei Güssing Oberer Graben","47.03791523","16.27775143","1021","","","Level 0","1"
"at:41:18417:0:2","Neustift bei Güssing Oberer Graben","47.03790911","16.27723939","1021","","","Level 0","2"
"at:41:18418:0:1","Oberdrosen Ortsmitte","46.88347547","16.11208412","1043","","","Level 0","1"
"at:41:18418:0:2","Oberdrosen Ortsmitte","46.88325443","16.11198531","1043","","","Level 0","2"
"at:41:18419:0:1","Langzeil Nord","47.04033342","16.31869664","1015","","","Level 0","1"
"at:41:18419:0:2","Langzeil Nord","47.04022935","16.31855291","1015","","","Level 0","2"
"at:41:18420:0:1","Langzeil Ost","47.03627447","16.31206707","1015","","","Level 0","1"
"at:41:18420:0:2","Langzeil Ost","47.03637242","16.31202215","1015","","","Level 0","2"
"at:41:18421:0:1","Unterfrauenhaid Gemeindeamt","47.57332743","16.50137803","1086","","","Level 0","1"
"at:41:18422:0:1","Großwarasdorf Kirchenberg","47.53848039","16.55421694","1073","","","Level 0","1"
"at:41:18422:0:2","Großwarasdorf Kirchenberg","47.53854710","16.55401033","1073","","","Level 0","2"
"at:41:18423:0:1","Nebersdorf Florianigasse","47.51710480","16.56675742","1124","","","Level 0","1"
"at:41:18423:0:2","Nebersdorf Florianigasse","47.51693493","16.56705386","1124","","","Level 0","2"
"at:41:18424:0:1","Nebersdorf Hauptstraße","47.51377394","16.56930863","1124","","","Level 0","1"
"at:41:18424:0:2","Nebersdorf Hauptstraße","47.51274248","16.57027882","1124","","","Level 0","2"
"at:41:18425:0:1","Eisenberg Unterberg Mitte","46.91322090","16.14445042","1042","","","Level 0","1"
"at:41:18428:0:1","Kleinwarasdorf Große Zeile","47.54101528","16.58359185","1073","","","Level 0","1"
"at:41:18428:0:2","Kleinwarasdorf Große Zeile","47.54098496","16.58409490","1073","","","Level 0","2"
"at:41:18429:0:1","Kleinwarasdorf Hauptstraße","47.53980849","16.58731087","1073","","","Level 0","1"
"at:41:18429:0:2","Kleinwarasdorf Hauptstraße","47.53938399","16.58864936","1073","","","Level 0","2"
"at:41:18430:0:1","Nikitsch Ortsmitte","47.53562394","16.65939169","1082","","","Level 0","1"
"at:41:18430:0:2","Nikitsch Ortsmitte","47.53575130","16.65931084","1082","","","Level 0","2"
"at:41:18431:0:1","Nikitsch Brückenwaage","47.53866839","16.66065832","1082","","","Level 0","1"
"at:41:18431:0:2","Nikitsch Brückenwaage","47.53826813","16.66055950","1082","","","Level 0","2"
"at:41:18434:0:1","Pilgersdorf Volksschule","47.43728802","16.34983224","1084","","","Level 0","1"
"at:41:18436:0:1","Deutschkreutz Europaschule","47.59847832","16.62647742","1070","","","Level 0","1"
"at:41:18437:0:1","Großwarasdorf Ortsmitte","47.53959624","16.55271675","1073","","","Level 0","1"
"at:41:18437:0:2","Großwarasdorf Ortsmitte","47.53970540","16.55242031","1073","","","Level 0","2"
"at:41:18438:0:1","Raiding Gemeindeamt","47.56731512","16.53021395","1086","","","Level 0","1"
"at:41:18438:0:2","Raiding Gemeindeamt","47.56736967","16.53000734","1086","","","Level 0","2"
"at:41:18439:0:1","Unterfrauenhaid Kirche","47.57452133","16.50341721","1086","","","Level 0","1"
"at:41:18442:0:1","Lackenbach Bergstraße","47.58919129","16.46576881","1077","","","Level 0","1"
"at:41:18442:0:2","Lackenbach Bergstraße","47.58941545","16.46591255","1077","","","Level 0","2"
"at:41:18444:0:1","Ritzing Gemeindeamt","47.60965933","16.49792850","1077","","","Level 0","1"
"at:41:18445:0:1","Ritzing Obere Berggasse West","47.61383798","16.49451490","1077","","","Level 0","1"
"at:41:18448:0:1","Horitschon Günser Straße Nord","47.58438659","16.54930315","1074","","","Level 0","1"
"at:41:18448:0:2","Horitschon Günser Straße Nord","47.58556205","16.54975231","1074","","","Level 0","2"
"at:41:18449:0:1","Horitschon Schulen","47.58687685","16.54668007","1074","","","Level 0","1"
"at:41:18451:0:1","Haschendorf im Bgld Kirche","47.59692756","16.57377326","1074","","","Level 0","1"
"at:41:18452:0:1","Großwarasdorf Obere Hauptstraße","47.54267684","16.55231251","1073","","","Level 0","1"
"at:41:18452:0:2","Großwarasdorf Obere Hauptstraße","47.54273748","16.55221369","1073","","","Level 0","2"
"at:41:18453:0:1","Bad Tatzmannsdorf Joseph-Haydn-Platz","47.33219303","16.22985326","1091","","","Level 0","1"
"at:41:18453:0:2","Bad Tatzmannsdorf Joseph-Haydn-Platz","47.33198602","16.22992512","1091","","","Level 0","2"
"at:41:18455:0:1","Jormannsdorf Oberschützener Straße","47.35131292","16.22185825","1091","","","Level 0","1"
"at:41:18455:0:2","Jormannsdorf Oberschützener Straße","47.35131292","16.22208283","1091","","","Level 0","2"
"at:41:18456:0:2","Bernstein Hauptstraße 12","47.40201616","16.25215842","1092","","","Level 0","2"
"at:41:18458:0:1","Redlschlag Feuerwehr","47.44004046","16.28642017","1092","","","Level 0","1"
"at:41:18459:0:1","Oberschützen Willersdorfer Straße","47.35545739","16.20192463","1091","","","Level 0","1"
"at:41:18459:0:2","Oberschützen Willersdorfer Straße","47.35538436","16.20177192","1091","","","Level 0","2"
"at:41:18463:0:1","Bernstein im Bgld Rettenbacher Straße","47.40307411","16.25348793","1092","","","Level 0","1"
"at:41:18463:0:2","Bernstein im Bgld Rettenbacher Straße","47.40206480","16.25219436","1092","","","Level 0","2"
"at:41:18464:0:1","Steinbach im Bgld Unterort","47.47731478","16.32317923","3528","","","Level 0","Unterort"
"at:41:18464:0:2","Steinbach im Bgld Unterort","47.47738157","16.32294567","3528","","","Level 0","Unterort"
"at:41:18464:0:3","Steinbach im Bgld Unterort","47.47777015","16.32416738","3528","","","Level 0","B55"
"at:41:18464:0:4","Steinbach im Bgld Unterort","47.47709621","16.32487705","3528","","","Level 0","B55"
"at:41:18465:0:1","Pilgersdorf Kirchschlager Straße","47.44271984","16.34798171","1084","","","Level 0","1"
"at:41:18465:0:2","Pilgersdorf Kirchschlager Straße","47.44268339","16.34812545","1084","","","Level 0","2"
"at:41:18466:0:1","Pilgersdorf Schulgasse","47.43796855","16.35090124","1084","","","Level 0","1"
"at:41:18466:0:2","Pilgersdorf Schulgasse","47.43778019","16.35127853","1084","","","Level 0","2"
"at:41:18467:0:1","Salmannsdorf im Bgld Ort","47.40903838","16.32322415","1087","","","Level 0","1"
"at:41:18467:0:2","Salmannsdorf im Bgld Ort","47.40904446","16.32333194","1087","","","Level 0","2"
"at:41:18468:0:1","Lockenhaus Abzw. Pilgersdorf","47.41174366","16.38032107","1079","","","Level 0","1"
"at:41:18468:0:2","Lockenhaus Abzw. Pilgersdorf","47.41187132","16.38052768","1079","","","Level 0","2"
"at:41:18469:0:1","Lockenhaus Schulen","47.40929371","16.41763708","1079","","","Level 0","1"
"at:41:18471:0:1","Dörfl im Bgld Obere Hauptstraße","47.48129757","16.48381597","1088","","","Level 0","1"
"at:41:18471:0:2","Dörfl im Bgld Obere Hauptstraße","47.48157077","16.48373512","1088","","","Level 0","2"
"at:41:18473:0:2","Steinberg/Rabnitz Gemeindeamt","47.47535364","16.48687922","1088","","","Level 0","2"
"at:41:18475:0:1","Draßmarkt Hauptstraße","47.51225102","16.40449473","1071","","","Level 0","1"
"at:41:18475:0:2","Draßmarkt Hauptstraße","47.51220854","16.40405455","1071","","","Level 0","2"
"at:41:18476:0:1","Draßmarkt Herrschaftsgarten","47.50841014","16.39526005","1071","","","Level 0","1"
"at:41:18476:0:2","Draßmarkt Herrschaftsgarten","47.50825237","16.39513428","1071","","","Level 0","2"
"at:41:18479:0:1","Unterrabnitz Pfarrlehen","47.45749350","16.37219131","1085","","","Level 0","1"
"at:41:18479:0:2","Unterrabnitz Pfarrlehen","47.45748743","16.37248776","1085","","","Level 0","2"
"at:41:18484:0:1","Hammerteich Abzw. Hammer","47.41102632","16.44264618","1079","","","Level 0","1"
"at:41:18484:0:2","Hammerteich Abzw. Hammer","47.41118438","16.44417332","1079","","","Level 0","2"
"at:41:18492:0:1","Lockenhaus Günser Straße","47.40912957","16.41913727","1079","","","Level 0","1"
"at:41:18492:0:2","Lockenhaus Günser Straße","47.40899582","16.41912829","1079","","","Level 0","2"
"at:41:18494:0:1","Oberschützen Hauptplatz","47.35066779","16.20775470","1091","","","Level 0","1"
"at:41:18494:0:2","Oberschützen Hauptplatz","47.35075300","16.20775470","1091","","","Level 0","2"
"at:41:18495:0:1","Schachendorf Ortsmitte","47.26324677","16.43411218","1112","","","Level 0","1"
"at:41:18495:0:2","Schachendorf Ortsmitte","47.26287490","16.43466914","1112","","","Level 0","2"
"at:41:18497:0:1","Heiligenbrunn Volksschule","47.02993135","16.41745742","1017","","","Level 0","1"
"at:41:18497:0:2","Heiligenbrunn Volksschule","47.03001095","16.41727776","1017","","","Level 0","2"
"at:41:18498:0:1","Mogersdorf Saubachbrücke","46.94608986","16.20801521","1038","","","Level 0","1"
"at:41:18498:0:2","Mogersdorf Saubachbrücke","46.94598560","16.20816792","1038","","","Level 0","2"
"at:41:18499:0:1","Güssing Abzw. Krottendorf","47.05574606","16.31045909","1015","","","Level 0","1"
"at:41:18499:0:2","Güssing Abzw. Krottendorf","47.05580114","16.31034230","1015","","","Level 0","2"
"at:41:18500:0:1","Rudersdorf Theresiensiedlung","47.05372027","16.11317108","1041","","","Level 0","1"
"at:41:18500:0:2","Rudersdorf Theresiensiedlung","47.05397732","16.11228175","1041","","","Level 0","2"
"at:41:18501:0:1","Rudersdorf Feuerwehr","47.04562857","16.12425629","1041","","","Level 0","1"
"at:41:18501:0:2","Rudersdorf Feuerwehr","47.04505317","16.12473240","1041","","","Level 0","2"
"at:41:18502:0:1","Zahling Kukmirner Straße","47.02190954","16.20800623","1031","","","Level 0","1"
"at:41:18502:0:2","Zahling Kukmirner Straße","47.02190954","16.20778165","1031","","","Level 0","2"
"at:41:18503:0:1","Rudersdorf Bergen Abzw. Pußta","47.07149687","16.13803645","1041","","","Level 0","1"
"at:41:18503:0:2","Rudersdorf Bergen Abzw. Pußta","47.07134391","16.13843171","1041","","","Level 0","2"
"at:41:18504:0:1","Rudersdorf Bergstraße West","47.06223297","16.12599004","1041","","","Level 0","1"
"at:41:18504:0:2","Rudersdorf Bergstraße West","47.06231864","16.12606191","1041","","","Level 0","2"
"at:41:18505:0:1","Königsdorf im Bgld Kirche","47.00447171","16.17117530","1036","","","Level 0","1"
"at:41:18505:0:2","Königsdorf im Bgld Kirche","47.00469225","16.17172327","1036","","","Level 0","2"
"at:41:18506:0:1","Burgauberg B57a Süd","47.13550468","16.11415025","1122","","","Level 0","1"
"at:41:18506:0:2","Burgauberg B57a Süd","47.13537024","16.11441076","1122","","","Level 0","2"
"at:41:18507:0:1","Burgauberg Sportplatz","47.13858450","16.11720452","1122","","","Level 0","1"
"at:41:18507:0:2","Burgauberg Sportplatz","47.13817509","16.11680926","1122","","","Level 0","2"
"at:41:18507:0:3","Burgauberg Sportplatz","47.13829730","16.11751893","1122","","","Level 0","3"
"at:41:18510:0:1","Markt Allhau Mirtisgraben","47.28578588","16.09869024","1102","","","Level 0","1"
"at:41:18510:0:2","Markt Allhau Mirtisgraben","47.28538370","16.10030721","1102","","","Level 0","2"
"at:41:18511:0:1","Markt Allhau Zipf Nord","47.28538370","16.09030896","1102","","","Level 0","1"
"at:41:18511:0:2","Markt Allhau Zipf Nord","47.28563964","16.09007540","1102","","","Level 0","2"
"at:41:18516:0:1","Limbach im Bgld Grabenstraße","47.04608767","16.16738441","1036","","","Level 0","1"
"at:41:18516:0:2","Limbach im Bgld Grabenstraße","47.04622846","16.16745628","1036","","","Level 0","2"
"at:41:18518:0:1","Poppendorf im Bgld Kirchengasse","46.99561281","16.22997902","1033","","","Level 0","1"
"at:41:18518:0:2","Poppendorf im Bgld Kirchengasse","46.99556992","16.23088632","1033","","","Level 0","2"
"at:41:18519:0:1","Rohrbrunn Ortsmitte","47.12289631","16.11463534","1122","","","Level 0","1"
"at:41:18519:0:2","Rohrbrunn Ortsmitte","47.12336696","16.11463534","1122","","","Level 0","2"
"at:41:18520:0:1","Rohrbrunn Abzw. Untererlau","47.10892156","16.11166191","1122","","","Level 0","1"
"at:41:18520:0:2","Rohrbrunn Abzw. Untererlau","47.10911720","16.11153615","1122","","","Level 0","2"
"at:41:18521:0:1","Deutsch Kaltenbrunn Abzw. Oberberg","47.10162094","16.10897595","1122","","","Level 0","1"
"at:41:18521:0:2","Deutsch Kaltenbrunn Abzw. Oberberg","47.10215905","16.10904782","1122","","","Level 0","2"
"at:41:18522:0:2","Rudersdorf Neue Allee","47.05288178","16.11945031","1041","","","Level 0","2"
"at:41:18523:0:1","Rudersdorf Antoniusplatz","47.05209836","16.11982760","1041","","","Level 0","1"
"at:41:18523:0:2","Rudersdorf Antoniusplatz","47.05241050","16.11975573","1041","","","Level 0","2"
"at:41:18524:0:1","Stegersbach Steinbach Nord","47.17493617","16.15530207","1127","","","Level 0","1"
"at:41:18524:0:2","Stegersbach Steinbach Nord","47.17497891","16.15547275","1127","","","Level 0","2"
"at:41:18525:0:1","Stegersbach Steinbach Süd","47.16738201","16.15823058","1127","","","Level 0","1"
"at:41:18525:0:2","Stegersbach Steinbach Süd","47.16736368","16.15812278","1127","","","Level 0","2"
"at:41:18526:0:1","Stinatz Nord","47.21131179","16.10796085","1026","","","Level 0","1"
"at:41:18526:0:2","Stinatz Nord","47.21111041","16.10790696","1026","","","Level 0","2"
"at:41:18527:0:1","Stinatz Ortsmitte","47.20390927","16.13180214","1026","","","Level 0","1"
"at:41:18527:0:2","Stinatz Ortsmitte","47.20411678","16.13103857","1026","","","Level 0","2"
"at:41:18528:0:1","Stinatz Hauptstraße","47.20149850","16.13400301","1026","","","Level 0","1"
"at:41:18528:0:2","Stinatz Hauptstraße","47.20134592","16.13405691","1026","","","Level 0","2"
"at:41:18529:0:1","Stinatz Feldgasse Nord","47.20600869","16.12433714","1026","","","Level 0","1"
"at:41:18529:0:2","Stinatz Feldgasse Nord","47.20586222","16.12400477","1026","","","Level 0","2"
"at:41:18530:0:1","Wolfau Gemeindeamt","47.25599174","16.09104558","1119","","","Level 0","1"
"at:41:18530:0:2","Wolfau Gemeindeamt","47.25590638","16.09124321","1119","","","Level 0","2"
"at:41:18531:0:1","Wolfau Rosenweg","47.25620514","16.09447714","1119","","","Level 0","1"
"at:41:18531:0:2","Wolfau Rosenweg","47.25609539","16.09462087","1119","","","Level 0","2"
"at:41:18532:0:1","Wolfau Sandriegel","47.25582712","16.09985805","1119","","","Level 0","1"
"at:41:18532:0:2","Wolfau Sandriegel","47.25746721","16.09858244","1119","","","Level 0","2"
"at:41:18534:0:1","Königsdorf im Bgld Bergen","47.02851691","16.17711316","1036","","","Level 0","1"
"at:41:18534:0:2","Königsdorf im Bgld Bergen","47.02850466","16.17703232","1036","","","Level 0","2"
"at:41:18535:0:1","Grafenschachen Kirche","47.36280831","16.06655750","1100","","","Level 0","1"
"at:41:18535:0:2","Grafenschachen Kirche","47.36290566","16.06662937","1100","","","Level 0","2"
"at:41:18545:0:1","Wörterberg Grabenhäuser","47.23487944","16.10115162","1026","","","Level 0","1"
"at:41:18545:0:2","Wörterberg Grabenhäuser","47.23480014","16.10065755","1026","","","Level 0","2"
"at:41:18546:0:1","Wörterberg Turmgasse","47.22780353","16.09928313","1026","","","Level 0","1"
"at:41:18546:0:2","Wörterberg Turmgasse","47.22730940","16.09905855","1026","","","Level 0","2"
"at:41:18547:0:1","Wörterberg Hubertusweg","47.22378327","16.09973229","1026","","","Level 0","1"
"at:41:18547:0:2","Wörterberg Hubertusweg","47.22350873","16.09951669","1026","","","Level 0","2"
"at:41:18548:0:1","Wörterberg Gemeindeamt","47.21989082","16.09997483","1026","","","Level 0","1"
"at:41:18548:0:2","Wörterberg Gemeindeamt","47.21986031","16.09988500","1026","","","Level 0","2"
"at:41:18549:0:1","Wörterberg Mitterberg","47.21536961","16.10397233","1026","","","Level 0","1"
"at:41:18549:0:2","Wörterberg Mitterberg","47.21543063","16.10369386","1026","","","Level 0","2"
"at:41:18550:0:1","Ollersdorf im Bgld Waldsiedlung","47.19217787","16.15196034","1126","","","Level 0","1"
"at:41:18550:0:2","Ollersdorf im Bgld Waldsiedlung","47.19213513","16.15187051","1126","","","Level 0","2"
"at:41:18552:0:1","Stinatz Friedhof","47.20021678","16.13633863","1026","","","Level 0","1"
"at:41:18552:0:2","Stinatz Friedhof","47.19978954","16.13690457","1026","","","Level 0","2"
"at:41:18553:0:1","Deutschkreutz Sportplatzgasse","47.60629196","16.62689064","1070","","","Level 0","1"
"at:41:18554:0:1","Neustift bei Güssing Ringweg","47.02337315","16.25805137","1021","","","Level 0","1"
"at:41:18554:0:2","Neustift bei Güssing Ringweg","47.02372833","16.25820409","1021","","","Level 0","2"
"at:41:18555:0:1","Deutschkreutz Esterhazygasse","47.60302127","16.63409513","1070","","","Level 0","1"
"at:41:18556:0:1","Deutschkreutz Schloßgasse","47.60140402","16.63364598","1070","","","Level 0","1"
"at:41:18557:0:1","Deutschkreutz Arbeitergasse Mitte","47.59893263","16.63545159","1070","","","Level 0","1"
"at:41:18558:0:1","Deutschkreutz Neubaugasse","47.59630361","16.63597261","1070","","","Level 0","1"
"at:41:18560:0:1","Neustift bei Güssing Kohsiedlung","47.01669165","16.25781781","1021","","","Level 0","1"
"at:41:18560:0:2","Neustift bei Güssing Kohsiedlung","47.01670390","16.25754832","1021","","","Level 0","2"
"at:41:18578:0:1","Minihof-Liebau Gemeindeamt","46.88205100","16.07167790","1043","","","Level 0","1"
"at:41:18578:0:2","Minihof-Liebau Gemeindeamt","46.88195276","16.07187553","1043","","","Level 0","2"
"at:41:18633:0:1","Großpetersdorf Hauptplatz","47.23797180","16.31963088","1095","","","Level 0","1"
"at:41:18633:0:2","Großpetersdorf Hauptplatz","47.23863050","16.31843613","1095","","","Level 0","2"
"at:41:18753:0:1","Markt Allhau Bildungszentrum","47.29302465","16.07679830","1102","","","Level 0","1"
"at:41:18762:0:1","Wolfau Siedlungsstraße","47.25858294","16.08935674","1119","","","Level 0","1"
"at:41:18762:0:2","Wolfau Siedlungsstraße","47.25832687","16.08930285","1119","","","Level 0","2"
"at:41:18773:0:1","Königsdorf im Bgld B65/Römersiedlung","47.01353127","16.17701435","1036","","","Level 0","1"
"at:41:18782:0:1","Steinberg/Rabnitz P+R","47.48976606","16.49486525","1083","","","Level 0","1"
"at:41:18782:0:2","Steinberg/Rabnitz P+R","47.48966894","16.49497304","1083","","","Level 0","2"
"at:41:18783:0:1","Jormannsdorf B50","47.34835499","16.22546049","1091","","","Level 0","1"
"at:41:18783:0:2","Jormannsdorf B50","47.34832456","16.22571202","1091","","","Level 0","2"
"at:41:18786:0:1","Lockenhaus B50/B55","47.41178013","16.38243211","1079","","","Level 0","1"
"at:41:18786:0:2","Lockenhaus B50/B55","47.41161600","16.38245007","1079","","","Level 0","2"
"at:41:18787:0:1","Steinberg/Rabnitz B50/Businesspark","47.48958396","16.49152351","1083","","","Level 0","1"
"at:41:18787:0:2","Steinberg/Rabnitz B50/Businesspark","47.48965073","16.49144267","1083","","","Level 0","2"
"at:41:20001:0:1","Neudörfl Pflegeheim","47.80083739","16.28051824","1047","","","Level 0","1"
"at:41:20001:0:2","Neudörfl Pflegeheim","47.80093997","16.28067993","1047","","","Level 0","2"
"at:41:20002:0:1","Neudörfl Siedlergasse","47.79810992","16.29089378","1047","","","Level 0","1"
"at:41:20002:0:2","Neudörfl Siedlergasse","47.79796510","16.29176514","1047","","","Level 0","2"
"at:41:20004:0:1","Bad Sauerbrunn Reichelgasse","47.77940599","16.32043937","1047","","","Level 0","1"
"at:41:20004:0:2","Bad Sauerbrunn Reichelgasse","47.77895928","16.32210125","1047","","","Level 0","2"
"at:41:20006:0:1","Bad Sauerbrunn Badstraße","47.77133448","16.33138085","1047","","","Level 0","1"
"at:41:20006:0:2","Bad Sauerbrunn Badstraße","47.77109902","16.33174916","1047","","","Level 0","2"
"at:41:20007:0:1","Römersee Landesstraße","47.75968081","16.34540355","1047","","","Level 0","1"
"at:41:20007:0:2","Römersee Landesstraße","47.75995255","16.34526880","1047","","","Level 0","2"
"at:41:20008:0:1","Dörfl im Bgld Ortsmitte","47.48697981","16.47644080","1088","","","Level 0","1"
"at:41:20008:0:2","Dörfl im Bgld Ortsmitte","47.48725298","16.47629707","1088","","","Level 0","2"
"at:41:20009:0:1","Bad Sauerbrunn Eisenstädter Straße","47.77727504","16.33342901","1047","","","Level 0","1"
"at:41:20009:0:2","Bad Sauerbrunn Eisenstädter Straße","47.77711808","16.33236900","1047","","","Level 0","2"
"at:41:20010:0:1","Steinberg/Rabnitz Neugasse","47.47676834","16.48649295","1088","","","Level 0","1"
"at:41:20010:0:2","Steinberg/Rabnitz Neugasse","47.47644655","16.48669058","1088","","","Level 0","2"
"at:41:20011:0:1","Kaisersdorf Mühlgasse","47.53417443","16.39605057","1075","","","Level 0","1"
"at:41:20011:0:2","Kaisersdorf Mühlgasse","47.53460504","16.39577209","1075","","","Level 0","2"
"at:41:20012:0:1","Kaisersdorf Mittelgasse","47.53860168","16.38917845","1075","","","Level 0","1"
"at:41:20013:0:1","Draßmarkt Am Anger","47.51310046","16.40784545","1071","","","Level 0","1"
"at:41:20013:0:2","Draßmarkt Am Anger","47.51331282","16.40902224","1071","","","Level 0","2"
"at:41:20015:0:1","Karl im Bgld Hauptplatz","47.50934460","16.34635576","3528","","","Level 0","1"
"at:41:20015:0:2","Karl im Bgld Hauptplatz","47.50918683","16.34659831","3528","","","Level 0","2"
"at:41:20016:0:1","Oberrabnitz Nord","47.49955624","16.35272482","1071","","","Level 0","1"
"at:41:20016:0:2","Oberrabnitz Nord","47.49974438","16.35281465","1071","","","Level 0","2"
"at:41:20017:0:1","Unterrabnitz Ortsmitte","47.45449901","16.37662899","1085","","","Level 0","1"
"at:41:20017:0:2","Unterrabnitz Ortsmitte","47.45443827","16.37687153","1085","","","Level 0","2"
"at:41:20018:0:1","Unterrabnitz Sportplatzgasse","47.45136464","16.38059954","1085","","","Level 0","1"
"at:41:20018:0:2","Unterrabnitz Sportplatzgasse","47.45155295","16.37980004","1085","","","Level 0","2"
"at:41:20019:0:1","Neudörfl Matthias-Kollwentz-Str.","47.79997452","16.30159271","1047","","","Level 0","1"
"at:41:20019:0:2","Neudörfl Matthias-Kollwentz-Str.","47.79993831","16.30122440","1047","","","Level 0","2"
"at:41:20021:0:1","Rohrbach/Mattersburg Hauptstraße Mitte","47.71223610","16.42432055","1048","","","Level 0","1"
"at:41:20021:0:2","Rohrbach/Mattersburg Hauptstraße Mitte","47.71219983","16.42445530","1048","","","Level 0","2"
"at:41:20022:0:1","Rohrbach/Mattersburg Karl-Stix-Platz","47.70851869","16.42492242","1048","","","Level 0","1"
"at:41:20022:0:2","Rohrbach/Mattersburg Karl-Stix-Platz","47.70935286","16.42476072","1048","","","Level 0","2"
"at:41:20023:0:1","Rohrbach bei Mattersburg Volksschule","47.70657223","16.42819229","1048","","","Level 0","1"
"at:41:20023:0:2","Rohrbach bei Mattersburg Volksschule","47.70719486","16.42797669","1048","","","Level 0","2"
"at:41:20024:0:1","Rohrbach bei Mattersburg Bachgasse","47.70248564","16.43084232","1048","","","Level 0","1"
"at:41:20024:0:2","Rohrbach bei Mattersburg Bachgasse","47.70261260","16.43084232","1048","","","Level 0","2"
"at:41:20025:0:1","Loipersbach im Bgld Kirchen","47.69480126","16.47420400","1048","","","Level 0","1"
"at:41:20025:0:2","Loipersbach im Bgld Kirchen","47.69495242","16.47433874","1048","","","Level 0","2"
"at:41:20026:0:1","Loipersbach im Bgld Volksschule","47.69765508","16.48125577","1048","","","Level 0","1"
"at:41:20026:0:2","Loipersbach im Bgld Volksschule","47.69775181","16.48114797","1048","","","Level 0","2"
"at:41:20027:0:1","Schattendorf Bahnhofstraße","47.70784167","16.50751353","1049","","","Level 0","1"
"at:41:20027:0:2","Schattendorf Bahnhofstraße","47.70789003","16.50736980","1049","","","Level 0","2"
"at:41:20028:0:1","Schattendorf Kirchengasse","47.71063432","16.51079238","1049","","","Level 0","1"
"at:41:20028:0:2","Schattendorf Kirchengasse","47.71095468","16.51090017","1049","","","Level 0","2"
"at:41:20029:0:1","Schattendorf Mühlgasse","47.71384992","16.51481683","1049","","","Level 0","1"
"at:41:20029:0:2","Schattendorf Mühlgasse","47.71375321","16.51435869","1049","","","Level 0","2"
"at:41:20030:0:1","Baumgarten im Bgld Raiffeisenplatz","47.73727789","16.50405501","1044","","","Level 0","1"
"at:41:20030:0:2","Baumgarten im Bgld Raiffeisenplatz","47.73706644","16.50405501","1044","","","Level 0","2"
"at:41:20031:0:1","Baumgarten im Bgld Florianiplatz","47.73913862","16.50048870","1044","","","Level 0","1"
"at:41:20031:0:2","Baumgarten im Bgld Florianiplatz","47.73865532","16.50127922","1044","","","Level 0","2"
"at:41:20032:0:1","Rohrbach/Mattersburg Pulverstampfgasse","47.71492577","16.42697956","1048","","","Level 0","1"
"at:41:20032:0:2","Rohrbach/Mattersburg Pulverstampfgasse","47.71494390","16.42778804","1048","","","Level 0","2"
"at:41:20033:0:1","Oberloisdorf Untere Pielgasse","47.44539909","16.50266262","1081","","","Level 0","1"
"at:41:20034:0:1","Sigleß Hauptstraße","47.77187785","16.39391258","1051","","","Level 0","1"
"at:41:20034:0:2","Sigleß Hauptstraße","47.77224010","16.39414614","1051","","","Level 0","2"
"at:41:20035:0:1","Pöttsching Florianigasse","47.80158561","16.37703323","1047","","","Level 0","1"
"at:41:20035:0:2","Pöttsching Florianigasse","47.80173646","16.37703323","1047","","","Level 0","2"
"at:41:20037:0:1","Pöttsching Neugasse","47.80673838","16.36203137","1047","","","Level 0","1"
"at:41:20037:0:2","Pöttsching Neugasse","47.80704005","16.36151034","1047","","","Level 0","2"
"at:41:20039:0:1","Stöttera Feuerwehr","47.76766355","16.46029807","1051","","","Level 0","1"
"at:41:20039:0:2","Stöttera Feuerwehr","47.76729524","16.45950756","1051","","","Level 0","2"
"at:41:20040:0:1","Pöttelsdorf Weinbergstraße","47.75606341","16.44285279","1051","","","Level 0","1"
"at:41:20040:0:2","Pöttelsdorf Weinbergstraße","47.75588223","16.44273601","1051","","","Level 0","2"
"at:41:20041:0:1","Walbersdorf Rosengasse","47.74029248","16.41246279","1046","","","Level 0","1"
"at:41:20041:0:2","Walbersdorf Rosengasse","47.74022603","16.41210346","1046","","","Level 0","2"
"at:41:20042:0:1","Mattersburg Stadion","47.73884260","16.40589610","1046","","","Level 0","1"
"at:41:20043:0:1","Mattersburg HAK","47.73984544","16.40362336","1046","","","Level 0","1"
"at:41:20043:0:2","Mattersburg HAK","47.73979107","16.40412642","1046","","","Level 0","2"
"at:41:20043:0:3","Mattersburg HAK","47.73915070","16.40300353","1046","","","Level 0","3"
"at:41:20043:0:4","Mattersburg HAK","47.73901176","16.40327302","1046","","","Level 0","4"
"at:41:20047:0:1","Sieggraben Sattelhöhe","47.65915779","16.37903647","1050","","","Level 0","1"
"at:41:20047:0:2","Sieggraben Sattelhöhe","47.65928485","16.37937783","1050","","","Level 0","2"
"at:41:20048:0:1","Sieggraben Fischergasse","47.65563627","16.37829087","1050","","","Level 0","1"
"at:41:20048:0:2","Sieggraben Fischergasse","47.65445028","16.37827291","1050","","","Level 0","2"
"at:41:20049:0:1","Sieggraben Abzw. Schwarzenbach","47.64381750","16.38043785","1050","","","Level 0","1"
"at:41:20049:0:2","Sieggraben Abzw. Schwarzenbach","47.64496137","16.37998869","1050","","","Level 0","2"
"at:41:20050:0:1","Tschurndorf Brunnenstraße","47.60813314","16.40551881","1090","","","Level 0","1"
"at:41:20050:0:2","Tschurndorf Brunnenstraße","47.60794539","16.40579729","1090","","","Level 0","2"
"at:41:20053:0:1","Stoob Abzw. Unterfrauenhaid","47.53248834","16.47217380","1089","","","Level 0","1"
"at:41:20053:0:2","Stoob Abzw. Unterfrauenhaid","47.53253079","16.47256906","1089","","","Level 0","2"
"at:41:20054:0:1","Stoob Gemeindeamt","47.52891583","16.47690792","1089","","","Level 0","1"
"at:41:20054:0:2","Stoob Gemeindeamt","47.52910993","16.47691691","1089","","","Level 0","2"
"at:41:20055:0:1","Oberpullendorf Spitalstraße/Hauptplatz","47.50341597","16.50470180","1083","","","Level 0","1"
"at:41:20055:0:2","Oberpullendorf Spitalstraße/Hauptplatz","47.50328853","16.50477366","1083","","","Level 0","2"
"at:41:20057:0:1","Unterpullendorf Kapelle","47.47628868","16.53863117","1072","","","Level 0","1"
"at:41:20057:0:2","Unterpullendorf Kapelle","47.47646476","16.53828082","1072","","","Level 0","2"
"at:41:20060:0:1","Großmutschen Ortsmitte","47.46609336","16.58372659","1072","","","Level 0","1"
"at:41:20060:0:2","Großmutschen Ortsmitte","47.46640307","16.58306184","1072","","","Level 0","2"
"at:41:20061:0:1","Großmutschen Neue Siedlung","47.46194544","16.58098673","1072","","","Level 0","1"
"at:41:20061:0:2","Großmutschen Neue Siedlung","47.46114983","16.58033096","1072","","","Level 0","2"
"at:41:20062:0:1","Frankenau im Bgld Mutschener Straße","47.45009504","16.60382191","1072","","","Level 0","1"
"at:41:20062:0:2","Frankenau im Bgld Mutschener Straße","47.45021654","16.60386682","1072","","","Level 0","2"
"at:41:20063:0:1","Frankenau im Bgld Strebersdorfer Straße","47.44977308","16.60772060","1072","","","Level 0","1"
"at:41:20063:0:2","Frankenau im Bgld Strebersdorfer Straße","47.44988850","16.60799009","1072","","","Level 0","2"
"at:41:20064:0:1","Strebersdorf im Bgld Kleine Gasse","47.45735988","16.61861716","1124","","","Level 0","1"
"at:41:20064:0:2","Strebersdorf im Bgld Kleine Gasse","47.45773038","16.61882377","1124","","","Level 0","2"
"at:41:20065:0:1","Strebersdorf im Bgld Untere Bahnzeile","47.46100407","16.62274941","1124","","","Level 0","1"
"at:41:20065:0:2","Strebersdorf im Bgld Untere Bahnzeile","47.46053641","16.62160855","1124","","","Level 0","2"
"at:41:20066:0:1","Lutzmannsburg Bachgasse","47.46312973","16.63217274","1124","","","Level 0","1"
"at:41:20066:0:2","Lutzmannsburg Bachgasse","47.46322082","16.63219070","1124","","","Level 0","2"
"at:41:20067:0:1","Lutzmannsburg Ortsmitte","47.46397997","16.63669126","1124","","","Level 0","1"
"at:41:20067:0:2","Lutzmannsburg Ortsmitte","47.46407106","16.63649363","1124","","","Level 0","2"
"at:41:20068:0:1","Kobersdorf Ortsmitte","47.59460741","16.39296934","1090","","","Level 0","1"
"at:41:20068:0:2","Kobersdorf Ortsmitte","47.59481943","16.39325681","1090","","","Level 0","2"
"at:41:20070:0:1","Kobersdorf Kaiser-Franz-Josef-Park","47.59398949","16.39536785","1090","","","Level 0","1"
"at:41:20070:0:2","Kobersdorf Kaiser-Franz-Josef-Park","47.59398949","16.39561039","1090","","","Level 0","2"
"at:41:20071:0:1","Kobersdorf Schloßgasse","47.59798765","16.39060678","1090","","","Level 0","1"
"at:41:20071:0:2","Kobersdorf Schloßgasse","47.59752727","16.39115475","1090","","","Level 0","2"
"at:41:20072:0:1","Oberpetersdorf Am Anger","47.60733974","16.38139904","1090","","","Level 0","1"
"at:41:20072:0:2","Oberpetersdorf Am Anger","47.60739425","16.38158769","1090","","","Level 0","2"
"at:41:20073:0:1","Oberpetersdorf Schulgasse","47.61539428","16.37616187","1090","","","Level 0","1"
"at:41:20074:0:1","Oberpetersdorf Landesgrenze","47.62126786","16.36977484","1090","","","Level 0","1"
"at:41:20074:0:2","Oberpetersdorf Landesgrenze","47.62132236","16.36989162","1090","","","Level 0","2"
